state,zip_code,name,latitude,longitude,category
Braddock,15104,Emil's Lounge,40.408735,-79.8663507,American
Carnegie,15106,Alexion's Bar & Grill,40.415517,-80.067534,American
Carnegie,15106,Kings Family Restaurant,40.3877323,-80.0928745,American
Carnegie,15106,Shop N'save,40.3877323,-80.0928745,
Carnegie,15106,Rocky's Lounge,40.3964688,-80.0849416,American
Carnegie,15106,Gab & Eat,40.3967441,-80.0847998,
Carnegie,15106,Barb's Country Junction Cafe,40.404638,-80.089985,
Carnegie,15106,Paddy's Pour House,40.40867,-80.085279,Irish
Pittsburgh,15220,Denny's,40.391255,-80.073426,American
Homestead,15120,McDonald's,40.412086,-79.910032,
Homestead,15120,Starbucks,40.407091,-79.916958,
Munhall,15120,Steak 'n Shake,40.413496,-79.9044562,
Homestead,15120,Sing Sing,40.4094884,-79.9151108,
Homestead,15120,Duke's Upper Deck Cafe,40.405311,-79.912595,American
Homestead,15120,Rock Bottom,40.4094884,-79.9151108,American
Homestead,15120,Giant Eagle,40.411484,-79.90877,
West Homestead,15120,Bar Louie,40.4070709,-79.917508,American
Munhall,15120,The Dragon Chinese Cuisine,40.3867759,-79.9028194,Chinese
Homestead,15120,T.G.I. Friday's,40.4087041,-79.9175086,American
Homestead,15120,Eat'n Park Restaurant,40.4113236,-79.9132525,American
West Mifflin,15122,Shop 'n Save,40.3736775,-79.8737336,
West Mifflin,15122,McDonald's,40.3849854,-79.8626605,
McKeesport,15132,Minerva Bakery,40.35208,-79.854724,
McKees Rocks,15136,Marge's Place,40.472505,-80.074153,
McKees Rocks,15136,Applebee's,40.46562,-80.0656106,American
Pittsburgh,15202,McDonald's,40.492067,-80.06235,
Bellevue,15202,Lincoln Bakery,40.496068,-80.057219,
Pittsburgh,15204,Remember When,40.459082,-80.077006,
Pittsburgh,15206,Pistella Beer Distributors,40.463717,-79.931884,
Pittsburgh,15206,Giant Eagle,40.458577,-79.921053,
Pittsburgh,15206,Enrico's Tazza D'oro Cafe & Espresso Bar,40.474884,-79.918862,
Pittsburgh,15206,Buffalo Blues,40.4583902,-79.9255146,
Pittsburgh,15206,McDonald's,40.4584723,-79.9187095,
Pittsburgh,15206,Food Glorious Food,40.475405,-79.919627,
Pittsburgh,15206,Shadow Lounge,40.4605159,-79.925241,
Pittsburgh,15206,Whole Foods Market,40.45851065,-79.9288302,
Pittsburgh,15206,Casbah,40.458138,-79.924797,
Pittsburgh,15206,Quiet Storm Vegetarian & Vegan Cafe,40.464485,-79.935388,
Pittsburgh,15208,Frick Park Market,40.4472949,-79.90508,
Pittsburgh,15208,East End Food Co-Op,40.4481991,-79.8954753,
Pittsburgh,15210,Page Dairy Mart,40.4115087,-79.9558863,
Pittsburgh,15210,Kullman's Bakery,40.415053,-79.987206,
Pittsburgh,15210,Bishop's Pizza,40.393115,-79.986911,
Pittsburgh,15212,The Park House,40.4531335,-80.0013672,
Pittsburgh,15212,Max's Allegheny Tavern,40.455167,-79.999815,
Pittsburgh,15212,The Priory Hotel,40.4521309,-79.9981452,
Pittsburgh,15212,Key West,40.4959456,-79.9606482,
Pittsburgh,15212,Clark Bar & Grill,40.4489884,-80.0088714,American
Pittsburgh,15212,BreadWorks Bakery,40.4621686,-80.0190648,
Pittsburgh,15212,Teutonia Mannerchor,40.455167,-79.994957,
Pittsburgh,15212,Caruso Beer Distributor,40.4566994,-80.0105349,
Pittsburgh,15212,Giant Eagle,40.4509987,-80.0009426,
Pittsburgh,15212,Peanutz,40.4534984,-80.0012052,American
Pittsburgh,15212,The Isaly Company,40.4534946,-79.9993338,
Pittsburgh,15212,Tom Friday's Market,40.4812123,-80.0414427,
Pittsburgh,15214,Schorr Bakery,40.489973,-80.018177,
Pittsburgh,15216,Apple Inn,40.3949331,-80.0342686,
Pittsburgh,15216,Kuhn's Market,40.3996765,-80.0434133,
Mount Lebanon,15216,The Coffee Tree Roasters,40.3887221,-80.0496559,
Pittsburgh,15216,Huddle,40.409125,-80.024957,
Pittsburgh,15216,Sushi Three,40.388562,-80.049448,Japanese
Pittsburgh,15216,Potomac Bakery,40.3954709,-80.0347424,
Pittsburgh,15216,Scoops On Beverly,40.3885545,-80.0500275,
Pittsburgh,15216,Banksville Beer Inc,40.401054,-80.0433063,
Pittsburgh,15216,Eat'n Park Restaurant,40.395871,-80.033585,American
Pittsburgh,15216,Dairy Queen,40.3958828,-80.0466445,
Pittsburgh,15216,The Dor-Stop Restaurant,40.3959206,-80.0348023,
Pittsburgh,15216,Arby's,40.414716,-80.03063,
Pittsburgh,15216,Market On Broadway IGA,40.409944,-80.024985,
Pittsburgh,15218,McBroom Distributor,40.431523,-79.893463,
Pittsburgh,15218,D's Six Pax & Dogz,40.432022,-79.893834,
Pittsburgh,15218,Taco Bell,40.427135,-79.890649,Mexican
Pittsburgh,15218,Katerbean,40.4323539,-79.89407,
Pittsburgh,15218,Giant Eagle,40.42304,-79.8873652,
Pittsburgh,15218,Wendy's,40.4254343,-79.8886201,
Pittsburgh,15218,Applebee's,40.4273028,-79.8886844,American
Pittsburgh,15220,Benihana,40.392287,-80.070269,Japanese
Pittsburgh,15220,Crouse Wayne Beer Distributor,40.3915059,-80.0594902,
Pittsburgh,15220,Giant Eagle,40.392484,-80.065824,
Pittsburgh,15220,Bruegger's Bagels,40.392551,-80.061579,
Pittsburgh,15220,Starbucks,40.392484,-80.065824,
Pittsburgh,15220,Better-Maid Donut Co,40.441776,-80.047466,
Pittsburgh,15220,Boston Market,40.418106,-80.045902,American
Pittsburgh,15220,Einstein Bros Bagels,40.418425,-80.045329,
Pittsburgh,15222,Starbucks,40.4401998,-80.0022117,
Pittsburgh,15222,Bossa Nova,40.4439388,-80.0006057,
Pittsburgh,15222,Olive Or Twist,40.4429278,-80.0025539,American
Pittsburgh,15222,Sunseri Jimmy & Nino Co,40.450964,-79.984628,Italian
Pittsburgh,15222,Labad's,40.4503182,-79.9854235,
Pittsburgh,15222,McDonald's,40.4422762,-79.9989518,
Pittsburgh,15222,Reyna Foods,40.4514856,-79.9834035,Mexican
Pittsburgh,15222,Nicholas Coffee Co,40.441253,-80.0030696,
Pittsburgh,15222,New Sambok Oriental Foods,40.4504367,-79.9852163,
Pittsburgh,15222,Au Bon Pain Co Inc,40.44756,-79.99086,
Pittsburgh,15222,La Prima Espresso Co,40.4514869,-79.9828538,
Pittsburgh,15212,Pegasus Lounge,40.471965,-80.037607,
Pittsburgh,15222,Lotus Food Co,40.449767,-79.986418,
Pittsburgh,15222,Cool Beans Coffee Co,40.444318,-79.994009,
Pittsburgh,15222,Andy's Sushi Bar,40.450111,-79.9858749,
Pittsburgh,15222,Fort Pitt Candy Co,40.4493537,-79.9861704,
Pittsburgh,15222,Sushi Kim Restaurant,40.4464777,-79.9916741,Korean
Pittsburgh,15222,Kim DO Oriental Grocery,40.4504243,-79.9845049,
Pittsburgh,15222,Caffe Amante,40.442228,-80.003107,
Pittsburgh,15222,Images Bar,40.443782,-79.99574,
Pittsburgh,15222,Mon Aimee Chocolat,40.4518345,-79.983095,
Pittsburgh,15222,Einstein Bagels,40.44756,-79.99086,
Pittsburgh,15222,Stan's Market,40.4507069,-79.9848298,
Pittsburgh,15222,Klavon's Ice Cream Parlor,40.4570059,-79.9756691,
Pittsburgh,15222,Subway,40.4422522,-79.9997165,
Pittsburgh,15222,Mahoney's Restaurant,40.4436238,-79.9963285,
Pittsburgh,15222,Fortunes Coffee Roastery,40.4512032,-79.9838104,
Pittsburgh,15222,Stamoolis Brothers Company,40.4512257,-79.9833014,
Pittsburgh,15222,Pennsylvania Macaroni Co,40.4513551,-79.9834614,
Pittsburgh,15222,Prestogeorge Fine Foods,40.450211,-79.98572,
Pittsburgh,15222,There Ultra Lounge,40.4434471,-79.9969003,
Pittsburgh,15222,Mullaneys Harp and Fiddle,40.4534271,-79.9809286,Irish
Pittsburgh,15224,Starbucks,40.461189,-79.947532,
Pittsburgh,15224,Paddy Cake Bakery,40.4612539,-79.947655,
Pittsburgh,15224,Groceria Italiana,40.4618603,-79.948546,
Pittsburgh,15224,Armand's Bar,40.461494,-79.948153,
Pittsburgh,15224,Nico's Recovery Room,40.4636982,-79.9489828,American
Pittsburgh,15224,Donatelli's Italian Food Center  Inc,40.462158,-79.949333,
Pittsburgh,15224,Pleasure Bar and Restaurant,40.461739,-79.9486639,Italian
Pittsburgh,15224,Twisters Soft Serve Ice Cream,40.4647058,-79.9541124,
Pittsburgh,15224,Silky's Pub,40.458267,-79.942274,American
Pittsburgh,15224,Boston Market,40.455568,-79.941471,American
Pittsburgh,15224,Lot 17 Bar and Grill,40.46257,-79.950128,American
Pittsburgh,15224,The Bloomfield Sandwich Shop,40.462632,-79.950246,
Pittsburgh,15224,Sammy's Famous Corned Beef,40.4655702,-79.9557489,
Pittsburgh,15226,Kribel's Bakery,40.395242,-80.022591,
Pittsburgh,15226,Pitaland,40.394874,-80.022086,
Pittsburgh,15226,Party Cake Shop,40.394482,-80.021538,
Pittsburgh,15226,Wendy's,40.400323,-80.024316,
Pittsburgh,15226,McDonald's,40.3989335,-80.0266142,
Pittsburgh,15205,McDonald's,40.4256974,-80.0502872,
Pittsburgh,15228,Little Tokyo,40.3819791,-80.0441649,Japanese
Pittsburgh,15228,Potomac Bakery,40.380869,-80.044391,
Pittsburgh,15228,The Saloon of Mt. Lebanon,40.3820875,-80.0443309,American
Pittsburgh,15228,Jernigan's Tobacco Village,40.357621,-80.0503804,
Pittsburgh,15228,The Korner Pub,40.3869206,-80.0440197,
Pittsburgh,15228,Uptown Coffee,40.3794554,-80.0448122,
Pittsburgh,15232,The Coffee Tree Roasters,40.4513702,-79.9328199,
Pittsburgh,15232,Umi,40.4569371,-79.9297,Japanese
Pittsburgh,15232,Bagel Factory,40.456766,-79.930303,
Pittsburgh,15232,Harris Grill,40.455955,-79.931338,American
Pittsburgh,15232,William Penn Tavern,40.45144522,-79.93373255,American
Pittsburgh,15232,Cappy's Cafe,40.451079,-79.9346715,American
Pittsburgh,15232,Prantl's Bakery,40.451668,-79.932915,
Pittsburgh,15232,Jitters Cafe,40.451832,-79.932424,
Pittsburgh,15232,Bruegger's Bagels,40.4507601,-79.9357368,
Pittsburgh,15232,The Inn on Negley,40.453359,-79.931454,
Pittsburgh,15232,Tokyo Japanese Food Store,40.4573354,-79.9291471,
Pittsburgh,15232,Shadyside Saloon,40.455763,-79.931512,
Pittsburgh,15232,Giant Eagle Market District,40.4563396,-79.9346032,
Pittsburgh,15232,Doc's Place,40.4509479,-79.9338609,
Pittsburgh,15232,Rite Aid,40.4511736,-79.9335764,
Pittsburgh,15232,Le Mardi Gras,40.4512699,-79.9346368,
Pittsburgh,15232,P&G's Pamela's Diner,40.451723,-79.932833,
Pittsburgh,15232,Crepes Parisiennes,40.4516614,-79.9333455,French
Pittsburgh,15232,Historic Sunnyledge Hotel of Shadyside,40.4477839,-79.9373637,
Pittsburgh,15232,Wendy's,40.456954,-79.937464,
Pittsburgh,15232,China Palace,40.450866,-79.933919,
Pittsburgh,15234,McGinnis John Special Food Store,40.364216,-80.02247,
Pittsburgh,15234,Graham's Bakery,40.368716,-80.034629,
Pittsburgh,15234,Castle Tavern Inc,40.371878,-80.00893,
Pittsburgh,15234,Signature Desserts,40.369099,-80.013523,
Pittsburgh,15238,Giant Eagle,40.48821075,-79.89384734,
Pittsburgh,15238,Tai Pei,40.48765293,-79.88061636,Chinese
Pittsburgh,15238,Coffee Tree Roasters the,40.4887162,-79.883087,
Pittsburgh,15238,Starlite Lounge,40.493969,-79.860283,American
Pittsburgh,15238,Bob's Garage,40.489501,-79.872353,
Pittsburgh,15220,Applebee's,40.3906976,-80.070806,American
Pittsburgh,15205,South Hills Brewing Supply,40.429825,-80.054154,
Belmont,28012,Wendy's,35.253329,-81.027326,
Belmont,28012,Bi-Lo,35.254065,-81.0419019,
Belmont,28012,Taco Bell,35.252694,-81.041502,Mexican
Belmont,28012,McDonald's,35.251806,-81.0433539,
Mount Holly,28120,McDonald's,35.2889229,-81.020392,
Mount Holly,28120,Lowesville Cafe,35.306711,-81.032466,
Pineville,28134,Firehouse Subs,35.0869866,-80.8717654,
Pineville,28134,Starbucks,35.0822,-80.8772242,
Pineville,28134,Bi-Lo,35.086948,-80.871878,
Pineville,28134,Taco Bell,35.084106,-80.878954,Mexican
Charlotte,28226,Bruegger's Bagels,35.089035,-80.8670549,
Pineville,28134,Applebee's,35.0857058,-80.8789517,American
Pineville,28134,Corner Cafe & Catering,35.1118189,-80.915583,
Pineville,28134,Arby's,35.0912719,-80.8857699,
Pineville,28134,Hatoya,35.092812,-80.88523,
Charlotte,28202,Jackson's Java,35.2245882,-80.8464606,
Charlotte,28202,Alexander Michael's,35.23361,-80.840783,American
Charlotte,28202,Starbucks,35.23366346,-80.85026455,
Charlotte,28202,Fox and Hound Smokehouse & Tavern,35.228985,-80.839671,American
Charlotte,28202,R?? R?? Irish Pub,35.228075,-80.8415605,Irish
Charlotte,28202,Champions,35.2279308,-80.8437189,
Charlotte,28202,Rock Bottom Restaurant & Brewery,35.230194,-80.839336,American
Charlotte,28202,Charlotte Coffee Station,35.223866,-80.844683,
Charlotte,28202,Southside Meat Market,35.227056,-80.8316959,
Charlotte,28202,Salsarita's Fresh Cantina,35.2273169,-80.843148,Mexican
Charlotte,28202,Monticello Restaurant,35.228718,-80.8411263,American
Charlotte,28202,Bar Charlotte,35.2278411,-80.8394745,
Charlotte,28202,Mert's Heart & Soul,35.2273178,-80.8401304,
Charlotte,28202,Halfpenny's,35.224741,-80.844753,
Charlotte,28202,Jersey Mike's Subs,35.226995,-80.844191,
Charlotte,28202,Phil's Deli New York Deli & Tavern,35.2278131,-80.8414916,
Charlotte,28202,Hartigan's Irish Pub,35.2283983,-80.8548383,American
Charlotte,28202,Phil's Tavern,35.2278131,-80.8414916,
Charlotte,28202,Goat Wagon Grocery,35.2336905,-80.8491657,
Charlotte,28202,Graduate Food & Pub,35.227459,-80.844211,American
Charlotte,28202,Stool Pigeons Coop & Grill,35.2288659,-80.8413659,American
Charlotte,28202,Savannah Red,35.2279308,-80.8437189,American
Charlotte,28202,Cutters Cigar Bar,35.2279308,-80.8437189,
Charlotte,28202,Connolly's On Fifth,35.227736,-80.841435,
Charlotte,28211,Arthur's At Belk,35.153939,-80.8317551,
Charlotte,28211,Bruegger's Bagels,35.176106,-80.799651,
Charlotte,28202,Buckhead Saloon,35.2268199,-80.8404187,
Charlotte,28202,Caribou Coffee,35.225394,-80.84395,
Charlotte,28202,Cosmos Cafe,35.2278411,-80.8394745,American
Charlotte,28202,Caribou Coffee,35.227396,-80.842257,
Charlotte,28202,Smoothie King,35.223866,-80.844683,
Charlotte,28202,Dixie's Tavern,35.2277289,-80.837321,
Charlotte,28202,Tic Toc Diner & Catering,35.230441,-80.838086,
Charlotte,28202,Rite Aid,35.2255255,-80.8461444,
Charlotte,28202,Reid's Fine Foods,35.2281675,-80.8381937,
Charlotte,28202,Circle K,35.2357159,-80.840513,
Charlotte,28277,Charlotte Cafe,35.095238,-80.779082,American
Charlotte,28277,CoffeeWorks,35.095238,-80.779082,
Charlotte,28202,Blue Restaurant & Bar,35.227392,-80.840592,
Charlotte,28202,Fujo,35.223866,-80.844683,
Charlotte,28204,Great Harvest Bread Co,35.206776,-80.835051,
Charlotte,28204,Cuisine Malaya,35.2154777,-80.8285213,
Charlotte,28235,La-Tea-Da's Catering,35.22999,-80.840621,
Charlotte,28204,Jersey Mike's Subs,35.2124,-80.817112,
Charlotte,28204,Snoop's Grill,35.216323,-80.821777,American
Charlotte,28204,The Morehead Inn,35.2098129,-80.841528,
Charlotte,28206,Chicken Box Cafe,35.2544169,-80.80088,
Charlotte,28206,The Village,35.26132,-80.81875,American
Charlotte,28208,Burger King,35.219378,-80.945041,
Charlotte,28208,Scorpio,35.233595,-80.879081,
Charlotte,28208,McDonald's,35.238401,-80.884618,
Charlotte,28208,McDonald's,35.228855,-80.923791,
Charlotte,28208,Bi-Lo,35.240149,-80.898114,
Charlotte,28208,Coyote Joe's,35.2277077,-80.9159489,
Charlotte,28208,Bojangles Restaurant,35.2289648,-80.9259185,
Charlotte,28208,Waffle House,35.2348251,-80.920439,
Charlotte,28208,Wendy's,35.24609,-80.893248,
Charlotte,28210,McDonald's,35.14974032,-80.83334148,
Charlotte,28210,Harper's Restaurant,35.148108,-80.8318029,American
Charlotte,28210,Dean & Deluca,35.146036,-80.825232,
Charlotte,28210,Harris Teeter,35.116603,-80.858247,
Charlotte,28210,Original Pancake House,35.14839312,-80.83341645,American
Charlotte,28210,Upstream,35.145671,-80.825569,
Charlotte,28210,Showmars At Park Cedar,35.093967,-80.865522,Greek
Charlotte,28212,Kabob House,35.172028,-80.746801,Persian
Charlotte,28212,Island Grocery,35.204011,-80.746165,
Charlotte,28212,McDonald's,35.183472,-80.756938,
Charlotte,28212,Sunrise Restaurant,35.202473,-80.73581,
Charlotte,28212,Crazy Horse Showclub,35.1875969,-80.757154,
Charlotte,28212,Bojangles' Famous Chicken 'n Biscuits,35.184415,-80.7563629,
Charlotte,28212,Healthy Home Market,35.184574,-80.758669,
Charlotte,28262,Flying Saucer Draught Emporium,35.31669443,-80.7405518,American
Charlotte,28212,Liberty East Restaurant,35.188469,-80.761267,
Charlotte,28214,Hardee's,35.243569,-80.938286,
Charlotte,28214,Showmars Restaurant,35.244848,-80.9379979,
Charlotte,28216,Bojangles',35.305592,-80.854973,
Charlotte,28216,Harris Teeter,35.3226749,-80.9456189,
Charlotte,28216,Sports Page Food & Spirits,35.30359071,-80.93694065,
Charlotte,28216,Coffee House At Mountain Island,35.3250995,-80.9463466,
Charlotte,28226,Caribou Coffee,35.1469664,-80.8090772,
Charlotte,28104,Hickory Tavern,35.053472,-80.7708,American
Charlotte,28226,McDonald's,35.089457,-80.868686,
Charlotte,28226,Bailey's Sports Grille,35.088597,-80.8632,American
Charlotte,28226,The Fresh Market,35.086472,-80.84855,
Charlotte,28226,Waffle House,35.0879649,-80.858344,
Charlotte,28226,Kabuto Japanese Steak House & Sushi Bar,35.088069,-80.8512049,Japanese
Charlotte,28226,Harris Teeter,35.117117,-80.824515,
Charlotte,28226,Good Ol' Days,35.096098,-80.785635,American
Charlotte,28226,Jack In the Box,35.0872448,-80.8502616,
Charlotte,28244,Starbucks,35.225047,-80.84266,
Charlotte,28262,Smoothie King,35.316675,-80.740521,
Charlotte,28262,Maggiemoo's,35.303872,-80.749548,
Charlotte,28262,Jack In the Box,35.32318,-80.732899,
Charlotte,28262,Chili's Grill & Bar,35.308705,-80.755472,American
Charlotte,28262,Bojangles Famous Chicken N Biscuits',35.3045349,-80.7510469,
Charlotte,28262,Stool Pigeons Coop & Grill,35.317215,-80.739129,American
Charlotte,28262,Walgreens,35.3045784,-80.7494171,
Charlotte,28262,Starbucks,35.312144,-80.745093,
Charlotte,28262,Ninety's Ice Cream & Sandwiches,35.310622,-80.749274,
Charlotte,28262,Qdoba Mexican Grill,35.3042746,-80.7487266,Mexican
Charlotte,28262,Bruegger's Bagels,35.312144,-80.745093,
Charlotte,28262,Applebee's,35.3110039,-80.75229,American
Charlotte,28262,Wine Vault,35.310622,-80.749274,
Charlotte,28262,Taco Bell,35.31006,-80.75372,Mexican
Charlotte,28262,Jersey Mike's Subs,35.312144,-80.745093,
Charlotte,28262,Nakato Japanese Steakhouse,35.3058802,-80.754177,Japanese
Charlotte,28262,Chick-fil-A,35.310345,-80.752252,
Charlotte,28262,Picasso's Sports Cafe,35.303872,-80.749548,
Charlotte,28262,Chicken King,35.295969,-80.79768,Greek
Charlotte,28262,Wing Zone,35.3171014,-80.74022,
Charlotte,28262,Harris Teeter,35.341491,-80.7651589,
Charlotte,28270,Quiznos,35.139018,-80.737035,
Charlotte,28270,McDonald's,35.138618,-80.738107,
Charlotte,28278,Dixie Grill & Grocery,35.202726,-80.974971,
Charlotte,28278,Harris Teeter,35.103305,-80.990847,
Charlotte,28280,Einstein's Bagels,35.226366,-80.842911,
Charlotte,28280,Chick-fil-A Bank of America Plaza,35.226366,-80.842911,
Fort Mill,29708,Gate Petroleum 326,35.0624433,-80.9916166,
Fort Mill,29708,Jumpin' Java,35.066409,-80.959521,
Fort Mill,29708,Circle K Stores,35.095597,-80.936151,
Fort Mill,29708,McDonald's,35.0603265,-80.9921999,
Fort Mill,29708,McHale's,35.0603864,-80.996515,American
Fort Mill,29708,Maggie Moo's Ice Cream & Treatery,35.0591764,-80.9894372,
Fort Mill,29708,Wendy's,35.007222,-80.945278,
Fort Mill,29708,Frugal MacDoogal's Beverage Warehouse,35.0960557,-80.9341211,
Lake Wylie,29710,T-Bones On the Lake,35.1130877,-81.0493103,
Charlotte,28269,QuikTrip,35.3077867,-80.8450998,
De Forest,53532,Culver's,43.251045,-89.374983,
De Forest,53532,Pick N Save,43.2411855,-89.3437256,
Mc Farland,53558,Culver's,43.013923,-89.3021179,
Mc Farland,53558,Beach House Restaurant & Lounge,43.017701,-89.303789,American
Mc Farland,53558,Parsonage Bed & Breakfast the,43.015931,-89.285206,
Middleton,53562,Barriques Wine & Spirits,43.096359,-89.513737,
Middleton,53562,Prairie Cafe & Bakery,43.107227,-89.496995,
Middleton,53562,Paul's Neighborhood Bar,43.1014598,-89.5111616,American
Middleton,53562,Starbucks,43.0904559,-89.5256818,
Middleton,53562,Cold Stone Creamery,43.0954855,-89.5235823,
Middleton,53562,McDonald's,43.090653,-89.5250779,
Middleton,53562,Hody Bar & Grill,43.095696,-89.5128222,
Middleton,53562,Clasen's European Bakery,43.1060972,-89.51178,
Middleton,53562,Three Sisters Old Town Inn,43.0999335,-89.511243,
Middleton,53562,Walgreens,43.097044,-89.4950894,
Middleton,53562,Hardee's,43.0976883,-89.5160417,
Middleton,53562,The Village Green,43.095724,-89.5120419,American
Middleton,53562,Walgreens,43.075383,-89.5271245,
Middleton,53562,Culver's,43.1062742,-89.5113122,
Middleton,53562,C's Restaurant Bakery and Coffee Shop,43.102896,-89.48674,American
Middleton,53562,Capital Brewery & Beer Garden,43.094876,-89.51625,
Middleton,53562,Scott's Pastry Shoppe,43.0961424,-89.4957363,
Sun Prairie,53590,Taco Bell,43.174555,-89.25008,Mexican
Sun Prairie,53590,Kfc,43.186768,-89.231699,
Sun Prairie,53590,Walmart Supercenter,43.1744162,-89.2459902,
Sun Prairie,53590,Dairy Queen,43.1824889,-89.225254,
Windsor,53598,A&W Restaurant,43.19553,-89.344187,
Windsor,53598,Mousehouse Cheesehaus,43.196191,-89.343511,
Madison,53704,Java Detour,43.1035763,-89.3439745,
Madison,53704,The Coffee Gallerie,43.1294885,-89.3607378,
Madison,53704,Sports Pub,43.1233605,-89.3247222,
Madison,53704,Burger King,43.1013138,-89.3474473,
Madison,53704,Wilson's Bar,43.0931063,-89.3504214,
Madison,53704,Chocolate Shoppe Ice Cream,43.0947001,-89.363672,
Madison,53704,Denny's,43.1234137,-89.3141696,
Madison,53704,Cracker Barrel Old Country Store,43.1294409,-89.2941061,
Madison,53704,Culver's,43.1340507,-89.3718005,
Madison,53704,Chili's,43.1266792,-89.3087635,American
Madison,53704,Einstein Brothers Bagels,43.0947348,-89.3635335,
Madison,53704,Copps Food Center,43.112943,-89.349625,
Madison,53704,Slice's Bar & Grill,43.104434,-89.357979,American
Madison,53704,Busse's Markway Tavern Inc,43.1207377,-89.3633619,
Madison,53704,Applebee's,43.130005,-89.303977,American
Madison,53704,McDonald's,43.1042988,-89.3420412,
Madison,53704,Wendy's,43.1216992,-89.3177873,
Madison,53704,Taco Bell,43.10379,-89.342924,Mexican
Madison,53704,Dexter's Pub,43.103498,-89.35019,American
Madison,53704,HomeTown Buffet,43.122528,-89.314783,American
Madison,53704,Eagle Crest Bar,43.107341,-89.2873539,
Madison,53704,International House of Pancakes,43.1296507,-89.3062815,
Madison,53704,Jenifer Street Market,43.0903644,-89.351502,
Madison,53704,Cool Beans Coffee Cafe,43.122992,-89.309042,
Madison,53704,Jim's Meat Market,43.1338307,-89.3704364,
Madison,53704,Speckled Hen Inn Bed & Breakfast,43.1522035,-89.3072797,
Madison,53704,Villa Tap,43.1234303,-89.3553421,
Madison,53704,Ideal Bar,43.0913533,-89.3564747,
Madison,53704,Players Sports Bar,43.0925151,-89.3546142,
Madison,53704,People's Bakery,43.102942,-89.345949,
Madison,53704,Cafe Zoma,43.0937266,-89.3475357,
Madison,53704,Tip Top Tavern,43.09287091,-89.36012192,American
Madison,53704,Harmony Bar & Grill,43.0931332,-89.3493112,American
Madison,53704,TGI Friday's,43.1314601,-89.2987432,American
Madison,53704,Woody Anne's,43.0962483,-89.3519395,
Madison,53714,Cottage Cafe,43.084991,-89.3070715,
Madison,53714,Michael's Frozen Custard,43.0851381,-89.3252648,
Madison,53714,Harley's Liquor & Bait,43.0846478,-89.3251036,
Monona,53714,East Side Club,43.0862623,-89.3272084,
Monona,53716,La Rosita Latina Grocery Store,43.0546552,-89.3255237,
Madison,53716,Dairy Queen,43.0842813,-89.3022244,
Monona,53716,Starbucks,43.0472393,-89.3238096,
Madison,53705,Metcalfe's Market,43.07413539,-89.45279875,
Monona,53716,Silver Eagle Bar & Grill,43.056329,-89.326148,American
Madison,53590,Carl's Cakes,43.182386,-89.211447,
Madison,53716,Sentry Food Stores,43.0843652,-89.3027572,
Monona,53716,Tully's II Food & Spirits,43.048755,-89.325947,American
Monona,53716,Ken's Meat's & Deli,43.057298,-89.32607,
Madison,53716,KFC,43.0841604,-89.3160033,
Monona,53716,Taco Bell,43.0477,-89.3246,Mexican
Monona,53716,Copps Foods,43.046379,-89.322571,
Madison,53716,Packer Inn,43.0837606,-89.3214992,
Madison,53716,Wendy's,43.0627242,-89.3086017,
Monona,53716,Tasting Room,43.0536435,-89.3252414,
Madison,53716,Culver's,43.083712,-89.3075439,
Madison,53718,JBC Coffee Roasters,43.051556,-89.278786,
Madison,53718,Oakhouse Farm Bakery,43.0651017,-89.2931516,
Madison,53718,Pooley's,43.1416538,-89.2854101,American
Madison,53726,Sushi Box,43.0720091,-89.4284519,Japanese
Madison,53726,Mike's Wine Shop,43.0680663,-89.4235293,
Madison,53726,Regent Market Co-Op,43.0680649,-89.4233908,
Urbana,61802,Boomerang's Bar & Grill,40.104934,-88.192572,American
Urbana,61802,County Market Discount Foods,40.095354,-88.1923149,
Urbana,61802,Schnucks,40.1139865,-88.2029151,
Urbana,61802,Corkscrew Wine Emporium,40.1139499,-88.2051605,
Urbana,61802,Cracker Barrel Old Country Store,40.1334216,-88.1994685,
Champaign,61820,Subway,40.110243,-88.2289779,
Champaign,61820,Espresso Royale,40.108089,-88.230136,
Champaign,61820,It's Brothers Bar & Grill,40.1102951,-88.2297712,
Champaign,61820,C O Daniel's,40.108173,-88.229887,
Champaign,61820,Walgreens,40.109931,-88.23276,
Champaign,61820,Luna,40.116715,-88.240606,
Champaign,61820,Geovanti's,40.1100246,-88.2332899,Italian
Champaign,61820,Illini Inn,40.107661,-88.233757,
Champaign,61820,Jimmy John's,40.1102061,-88.2411676,
Champaign,61820,Espresso Royale,40.0995146,-88.2448139,
Champaign,61820,Seaboat,40.09775,-88.248762,
Champaign,61820,Walnut Street Tea Co,40.11558757,-88.24324948,
Champaign,61820,Fannie May Fine Chocolates,40.112354,-88.24319,
Champaign,61820,Old Time Meat & Deli Shoppe,40.091899,-88.2452807,
Urbana,61801,Common Ground Food Co-Op,40.1146107,-88.2074702,
Champaign,61820,Merry-Ann's Diner,40.0984473,-88.2442422,
Champaign,61820,Sam's Cafe,40.1169853,-88.2427068,
Champaign,61820,Murphy's Pub,40.11037991,-88.23018797,American
Champaign,61820,Brass Rail,40.11615,-88.242862,
Champaign,61820,Le Peep Restaurant,40.086902,-88.247837,
Champaign,61820,Barfly,40.1171629,-88.2434059,
Champaign,61820,Mike N Molly's,40.11658116,-88.24183915,
Champaign,61820,Euro Mart,40.1126237,-88.2401563,
Champaign,61820,Jillian's,40.103246,-88.244236,American
Champaign,61820,Natural Gourmet,40.08678485,-88.24795224,
Champaign,61820,Chevys Fresh Mex,40.137405,-88.245935,Mexican
Champaign,61820,Legends,40.1106195,-88.2311483,
Champaign,61820,Hooters,40.095553,-88.245819,American
Champaign,61820,Tumble Inn Tavern,40.113786,-88.243041,
Champaign,61820,Bob Evans,40.137522,-88.244351,American
Champaign,61820,McDonald's,40.097435,-88.24538422,
Champaign,61820,Far East,40.115755,-88.232332,
Champaign,61820,Cafe Kopi,40.116825,-88.242716,
Champaign,61820,Farren's Pub & Eatery,40.11874616,-88.2449556,
Champaign,61820,Dunkin' Donuts,40.1104641,-88.2439326,
Champaign,61820,Subway,40.1002494,-88.2442559,
Champaign,61820,Den Liquors,40.111016,-88.230183,
Champaign,61801,Rose Bowl Tavern Ltd,40.112885,-88.208747,
Champaign,61820,Moonstruck Chocolate Cafe,40.109995,-88.22911,
Champaign,61820,Red Lion,40.109909,-88.235626,
Champaign,61820,Clybourne,40.1096693,-88.2303712,
Champaign,61820,Joe's Brewery,40.109713,-88.2317829,American
Champaign,61820,The Cookie Jar,40.10945,-88.2302069,
Champaign,61820,Cowboy Monkey,40.11754,-88.243073,
Champaign,61820,Am-Ko Oriental Foods & Gifts,40.112538,-88.238638,
Champaign,61820,Esquire Lounge Inc,40.116597,-88.242292,
Champaign,61820,Jupiter's Pizzeria & Billiards,40.11774191,-88.24151398,
Champaign,61820,Bacaro,40.11690698,-88.24260192,American
Champaign,61820,Radio Maria,40.1171251,-88.2426687,Spanish
Champaign,61822,Road Ranger,40.1562658,-88.23920287,
Champaign,61820,Jarling's Custard Cup,40.0977213,-88.2477415,
Savoy,61874,KFC,40.0706513,-88.2494472,
Phoenix,85004,Palazzo,33.456068,-112.074225,
Phoenix,85004,Safeway,33.4657106,-112.0674695,
Phoenix,85004,Teeter House Tea Room,33.4495394,-112.0656645,
Phoenix,85004,Phoenix Produce Company,33.4424729,-112.0737871,
Phoenix,85004,Copper Square Cafe,33.4484911,-112.0744277,
Phoenix,85004,Circle K,33.4368066,-112.0657921,
Phoenix,85004,Taco Bell,33.46544,-112.06909,Mexican
Phoenix,85004,Majerle's Sports Grill,33.4484654,-112.0712574,American
Phoenix,85004,International House of Pancakes,33.4756064,-112.0740016,
Phoenix,85004,Phoenix Blue Fin,33.4640983,-112.073569,Japanese
Phoenix,85004,Coach & Willies,33.443864,-112.070061,American
Phoenix,85004,Jackson's On 3rd,33.4450348,-112.0703479,American
Phoenix,85004,Paradise Bakery,33.44742,-112.0706,
Phoenix,85004,Hooters,33.4526031,-112.0691194,American
Phoenix,85004,Starbucks,33.4657117,-112.0657286,
Phoenix,85004,The Downtown Deli,33.4499524,-112.0740511,
Phoenix,85004,Subway,33.4527955,-112.0693177,
Phoenix,85004,McDonald's,33.4655868,-112.0654701,
Phoenix,85004,Subway,33.4793076,-112.0738063,
Phoenix,85004,Central Cafe,33.477111,-112.074398,
Phoenix,85004,Duck & Decanter,33.44837568,-112.0727069,
Phoenix,85004,Schlotzskys Deli,33.476644,-112.0736968,
Phoenix,85004,Cheuvront,33.463172,-112.074725,American
Phoenix,85004,Alice Cooper'stown,33.44480198,-112.0721177,American
Phoenix,85004,A Touch of Yogurt,33.448333,-112.074127,
Phoenix,85004,Bar Bianco,33.4493603,-112.0660026,
Phoenix,85006,Subway,33.4794961,-112.0469586,
Phoenix,85006,Cash Inn Country,33.4657958,-112.0355262,
Phoenix,85006,Whataburger,33.4654334,-112.063548,American
Phoenix,85006,La Tolteca Mexican Foods,33.45107,-112.055957,Mexican
Phoenix,85006,Dulceria Pico Rico,33.4754681,-112.0473583,
Phoenix,85006,Sunshine Market,33.4730967,-112.0565185,
Phoenix,85006,Welcome Diner,33.4588282,-112.0610433,American
Phoenix,85006,Karamba Nightclub,33.4659055,-112.0445595,
Phoenix,85006,Los Altos Ranch Market,33.4596905,-112.0462108,
Phoenix,85006,Rainbow Donut,33.4654529,-112.052224,
Phoenix,85006,Coco's Family Restaurant,33.470783,-112.065371,American
Phoenix,85006,Walgreens,33.4657047,-112.0648876,
Phoenix,85006,Sonic Drive-In,33.466215,-112.063247,
Phoenix,85006,MacAlpine's Soda Fountain,33.473125,-112.0650914,
Phoenix,85006,Royale Lounge,33.47322,-112.04806,
Phoenix,85006,Food City,33.4659743,-112.0373885,
Phoenix,85006,Realeza Michoacana,33.4754163,-112.0478488,
Phoenix,85006,Stanley's Homemade Polish Sausage,33.465674,-112.033977,
Phoenix,85008,Subway,33.4657569,-111.9725723,
Phoenix,85008,99 Ranch Market,33.4552907,-111.9878697,
Phoenix,85008,Sonic Drive-In,33.4661343,-111.973718,American
Phoenix,85008,Jack-In-the Box Drive Thru,33.458744,-112.029827,
Phoenix,85008,Del Taco,33.466688,-111.987753,
Phoenix,85008,Cork & Bottle,33.465276,-111.992707,
Phoenix,85008,Food City,33.4658551,-111.9860203,
Phoenix,85008,Baja Red's Cantina,33.466366,-111.971069,
Phoenix,85016,Walgreens,33.4948559,-112.0300284,
Phoenix,85008,Costco,33.4739239,-111.984541,
Phoenix,85008,Applebee's,33.476082,-111.986469,American
Phoenix,85008,Taco Bell,33.476956,-111.986944,Mexican
Phoenix,85012,AJ's Purveyor of Fine Foods,33.509562,-112.0736825,
Phoenix,85006,Bitter Creek Cafe,33.463512,-112.064401,American
Phoenix,85012,George & Dragon Restaurant,33.4977417,-112.0739754,
Phoenix,85012,The Good Egg - Uptown,33.50960522,-112.0719614,
Phoenix,85012,Zoom Espresso,33.4933771,-112.0737118,
Phoenix,85012,Walgreens,33.4876207,-112.0739243,
Phoenix,85012,Jack-In-the-Box,33.486194,-112.073895,
Phoenix,85012,Wendy's,33.4945855,-112.0689504,
Phoenix,85012,Boston Market,33.51073439,-112.0733185,American
Phoenix,85012,Fusilli's,33.5114334,-112.0685027,Italian
Phoenix,85012,See's Candy Shops,33.5094226,-112.0710576,
Phoenix,85012,See's Candies,33.5094226,-112.0710576,
Phoenix,85012,Applebee's,33.50956812,-112.0733274,American
Phoenix,85012,Jamba Juice,33.48423398,-112.0751166,
Phoenix,85012,HB Hanratty's,33.5091973,-112.0658233,
Phoenix,85012,Yoshi's Restaurant,33.4940659,-112.074398,Japanese
Phoenix,85012,Dairy Queen,33.510392,-112.0741307,
Phoenix,85012,SunUp Brewing Co,33.5094087,-112.0687564,
Phoenix,85012,Le Peep Restaurant On Central,33.491509,-112.075675,
Phoenix,85012,Chevron Food Mart,33.494438,-112.069987,
Phoenix,85012,Starbucks,33.511391,-112.069119,
Phoenix,85014,Cruisin' 7th,33.490364,-112.065403,
Phoenix,85014,Jack in the Box,33.530652,-112.064643,
Phoenix,85014,Taco Bell,33.523756,-112.049638,Mexican
Phoenix,85014,Christo's Ristorante,33.529845,-112.064704,Italian
Phoenix,85014,Karsh's Bakery,33.5175821,-112.064846,
Phoenix,85014,Pomeroy's,33.517587,-112.064795,
Phoenix,85014,Schreiner's Fine Sausage,33.4894313,-112.064679,
Phoenix,85014,Plazma,33.487724,-112.048763,
Phoenix,85014,Walgreens,33.509729,-112.064445,
Phoenix,85014,Baskin-Robbins,33.5237259,-112.0486848,
Phoenix,85014,Scott's Generations Restaurant & Delicatessen,33.5184314,-112.0641262,
Phoenix,85014,Maryland Deli & Liquor Llc,33.531318,-112.065445,
Phoenix,85014,Friends,33.494843,-112.0593854,
Phoenix,85014,Apollo's Lounge,33.521758,-112.064615,
Phoenix,85014,Roscoes On Seventh,33.5026959,-112.0645933,
Phoenix,85014,Segal's One Stop Kosher Foods,33.5080044,-112.0653397,
Phoenix,85016,Subway,33.4949031,-112.0302027,
Phoenix,85016,ABC Baking Cake Decorating Supplies,33.4947478,-112.0198117,
Phoenix,85016,Asahi Bakery,33.5252492,-112.0476687,
Phoenix,85016,CJ's Talley's Pub,33.5245317,-112.0474836,
Phoenix,85016,Cold Stone Creamery,33.507557,-112.040116,
Phoenix,85016,Harvey's Wineburger,33.5078595,-112.0475385,
Phoenix,85016,Moto Sushi,33.5369963,-112.0474809,Japanese
Phoenix,85016,Starbucks,33.508756,-112.045816,
Phoenix,85016,Cost Plus World Market,33.5094217,-112.0435151,
Phoenix,85016,Walgreens,33.4802125,-112.0465283,
Phoenix,85016,McDonald's,33.5087649,-112.04624,
Phoenix,85016,Subway,33.507549,-112.047066,
Phoenix,85016,Einstein Bros Bagels,33.508756,-112.045816,
Phoenix,85016,Phoenix City Grille,33.52265,-112.0475118,Irish
Phoenix,85016,Starbucks,33.523442,-112.04714,
Phoenix,85016,Duck & Decanter,33.5092185,-112.0467405,
Phoenix,85016,Europa Pastry Cafe,33.5318417,-112.0479816,
Phoenix,85016,Fish Market Restaurant,33.509927,-112.044949,
Phoenix,85016,Swizzle Inn,33.52324474,-112.0468714,
Phoenix,85016,Angelo's Lounge,33.491244,-112.047956,
Phoenix,85016,Dairy Queen,33.5305474,-112.0472047,
Phoenix,85016,Armadillo Grill,33.5093736,-112.0409502,American
Phoenix,85016,Haagen Dazs Shop,33.51039802,-112.027891,
Phoenix,85016,MercBar,33.508704,-112.028081,
Phoenix,85016,Three Dog Bakery,33.5094453,-112.0290689,
Phoenix,85016,Coffee Plantation,33.5094737,-112.0284299,
Phoenix,85016,Jamba Juice,33.507549,-112.047066,
Phoenix,85016,GNC,33.5086548,-112.0457372,
Phoenix,85016,Miracle Mile Delicatessen,33.507557,-112.040116,
Phoenix,85016,The Cheesecake Factory,33.51000845,-112.029652,American
Phoenix,85016,La Madeleine French Bakery & Cafe,33.510311,-112.01556,French
Phoenix,85016,Nixon's,33.5093706,-112.0273984,American
Scottsdale,85251,Au Petit Four,33.4977936,-111.9254014,French
Phoenix,85016,Trader Joe's,33.5071613,-112.0388437,
Phoenix,85016,Julioberto's,33.4804658,-112.0218376,Mexican
Phoenix,85016,Wright's,33.5160662,-112.029562,American
Phoenix,85016,Zen 32,33.5100455,-112.01408,Japanese
Phoenix,85016,Taco Bell,33.494876,-112.028973,Mexican
Phoenix,85016,Hava Java,33.5100513,-112.0135105,
Phoenix,85016,Chili's Grill and Bar,33.5092864,-112.0370322,American
Phoenix,85016,The Wrigley Mansion Club,33.523043,-112.026658,American
Phoenix,85016,Churchs Chicken,33.480776,-112.013252,
Phoenix,85016,The Vintage Market,33.5094453,-112.0290689,
Phoenix,85016,Almond Brothers,33.495208,-112.026105,
Phoenix,85016,Kfc,33.495245,-112.02898,
Phoenix,85016,Keegan's Grill,33.5100215,-112.0153526,American
Phoenix,85016,Avanti,33.4804921,-112.0221966,Italian
Phoenix,85016,Food City,33.494259,-112.0141905,
Phoenix,85016,Cactus Candy Co,33.48254,-112.030578,
Phoenix,85016,Sophie's French Bistro,33.487817,-112.031296,French
Phoenix,85016,Hi-Health,33.5092739,-112.0366515,
Phoenix,85016,Kat's,33.494542,-112.031785,
Phoenix,85016,Barb's Bakery,33.481711,-112.029757,
Phoenix,85016,Hillstone Restaurant,33.510034,-112.0241743,American
Phoenix,85018,56th St Deli & Market,33.488839,-111.959883,
Phoenix,85018,Walgreens,33.4796142,-111.9604011,
Phoenix,85018,Sonic Drive-In,33.4804795,-112.0096143,American
Phoenix,85018,Vincent Market Bistro,33.50997381,-111.9966023,French
Phoenix,85018,Coffee Lady,33.4943968,-111.995508,
Phoenix,85018,Ice House Tavern,33.4804263,-111.9996671,
Phoenix,85018,German Sausage Company,33.495018,-111.975898,
Phoenix,85018,Subway,33.479698,-111.982927,
Phoenix,85018,Baskin-Robbins 31 Ice Cream Stores,33.5097828,-111.9963033,
Phoenix,85018,Pat Murphy's,33.480204,-112.012258,
Phoenix,85018,Chipotle Mexican Grill,33.47979355,-111.9859848,Mexican
Phoenix,85018,The Water Connection,33.5097447,-111.9959864,
Phoenix,85018,Slice of Sicily,33.4955624,-112.000651,
Phoenix,85018,Einstein Bros Bagels,33.494436,-111.986521,
Phoenix,85018,McDonald's,33.495665,-112.012269,
Phoenix,85018,Safeway,33.4947211,-111.9794032,
Phoenix,85018,Tammie Coe Cakes & MJ Bread,33.5024095,-111.9955012,
Phoenix,85018,Sacks Art of Sandwicherie,33.494594,-111.9893448,
Phoenix,85018,Mama Java's Coffee House,33.4950814,-112.0032205,
Phoenix,85018,La Grande Orange Grocery,33.50231263,-111.9957522,
Phoenix,85018,Postino Arcadia,33.5021111,-111.9963386,Italian
Phoenix,85018,Fry's Food Store,33.479131,-111.984771,American
Phoenix,85018,Jt's Bar & Grill,33.494204,-111.976613,American
Phoenix,85018,Taylor's Cafe,33.5108208,-111.9862703,
Phoenix,85018,The Great Escape Lounge,33.4949895,-111.9901777,
Phoenix,85018,Dilly Dally Lounge,33.4951643,-112.0024784,
Phoenix,85018,Dunkin' Donuts,33.4807298,-111.9924295,
Phoenix,85018,El Pollo Loco,33.4806911,-111.9926934,Mexican
Phoenix,85018,Ox Sports Bar,33.482045,-112.01229,
Phoenix,85018,Cookies In Bloom,33.4950353,-111.9959177,
Phoenix,85018,Empire Discount Liquors,33.4951307,-111.9967397,
Phoenix,85018,Ole Brass Rail,33.4807558,-112.0001367,
Phoenix,85018,Dairy Queen,33.480592,-111.992013,
Phoenix,85018,Burger King,33.479938,-111.98828,
Phoenix,85020,Rainbow Donuts,33.563433,-112.065592,
Phoenix,85020,Veranda Bistro,33.550167,-112.048885,
Phoenix,85020,Blue Saguaro Cafe,33.546608,-112.047023,
Phoenix,85020,Bashas',33.5380763,-112.0464479,
Phoenix,85020,McDonald's,33.5382428,-112.0474793,
Phoenix,85020,Coffee Plantation,33.538927,-112.048079,
Phoenix,85020,Grinders Coffee Company,33.5675286,-112.0731019,
Phoenix,85020,QuikTrip,33.5587588,-112.065221,
Phoenix,85020,Big Daddy's Sports Lounge,33.583061,-112.051734,
Phoenix,85020,Bobby D's Restaurant & Lounge,33.582578,-112.051894,
Phoenix,85020,Pointe In Tyme,33.601202,-112.062583,
Phoenix,85020,4 Kings North,33.553251,-112.057112,
Phoenix,85020,Walgreens,33.538927,-112.048079,
Phoenix,85020,DO Drop In,33.572465,-112.064928,
Phoenix,85020,Chevron Stations,33.5382505,-112.0474843,
Phoenix,85020,Dizzy's Sports Pub,33.54023216,-112.0648813,
Phoenix,85020,Gallagher's Sports Grill,33.546608,-112.047023,American
Phoenix,85020,Stumpys Pizza,33.55283797,-112.0535259,Italian
Phoenix,85022,Walgreens,33.6403347,-112.0714402,
Phoenix,85022,Sport Peppers Grill,33.641478,-112.0475,American
Phoenix,85022,Circle K Stores,33.597169,-112.037281,
Phoenix,85022,Subway,33.5969577,-112.037862,
Phoenix,85022,Jana's Bakery,33.605416,-112.036108,
Phoenix,85023,Hostess Bakery Outlet,33.65356,-112.08263,
Phoenix,85022,Sonic Drive-In,33.6378764,-112.0638336,
Phoenix,85022,Safeway Food & Drug,33.6094039,-112.0654946,
Phoenix,85022,Wendy's,33.6376961,-112.0653886,
Phoenix,85022,Ammaccapane's Restaurant & Sports Bar,33.60943809,-112.0666878,American
Phoenix,85022,AJ's Purveyor of Fine Foods,33.606332,-112.066095,
Phoenix,85022,Boston Market,33.6407,-112.070232,
Phoenix,85022,Einstein Bros Bagels,33.639176,-112.0656185,
Phoenix,85022,McDonald's,33.6074328,-112.0649186,
Phoenix,85022,Salute Ristorante Italiano,33.606332,-112.066095,Italian
Phoenix,85022,Taco Bell,33.596967,-112.037524,Mexican
Phoenix,85022,QuikTrip,33.5961063,-112.0354613,
Phoenix,85022,Starbucks,33.6068171,-112.0654174,
Phoenix,85022,Hi-Health,33.6403812,-112.0674064,
Phoenix,85022,Dairy Queen,33.6023313,-112.0366539,
Phoenix,85024,QuikTrip,33.67732,-112.0311226,
Phoenix,85024,Dairy Queen,33.6548149,-112.0637783,
Phoenix,85024,Cave Creek Wines,33.67722,-112.029184,
Phoenix,85024,Subway,33.662594,-112.030244,
Phoenix,85024,Larry's Place,33.66785401,-112.0296371,
Phoenix,85024,Bashas,33.6537043,-112.065019,
Phoenix,85024,Quiznos,33.6789932,-112.0301297,
Phoenix,85024,Gallagher's,33.6548578,-112.0638772,American
Phoenix,85024,QuikTrip,33.6661149,-112.0647717,
Phoenix,85028,Taco Bell,33.582569,-111.979243,Mexican
Phoenix,85028,TCBY Yogurt,33.5837251,-111.9777429,
Phoenix,85028,Starbucks,33.5837251,-111.9777429,
Phoenix,85028,Yasha From Russia,33.5804371,-112.0133809,
Phoenix,85028,Whole Foods Market,33.583924,-111.978526,
Phoenix,85028,Blooze,33.5958721,-112.0131628,
Phoenix,85028,Bashas' ,33.583516,-112.0130668,
Phoenix,85028,Walgreens,33.583016,-112.013107,
Phoenix,85028,Playa Bar and Grill,33.58193,-112.011752,
Phoenix,85028,Subway,33.5825876,-112.0098473,
Phoenix,85032,Food City,33.6283281,-112.013151,
Phoenix,85032,Wagon Yard,33.6400327,-112.0249314,American
Phoenix,85032,Subway,33.5997853,-111.9869486,
Phoenix,85032,Walmart Supercenter,33.6390345,-111.9817311,
Phoenix,85032,Taco Bell,33.64024,-112.029534,Mexican
Phoenix,85032,McDonald's,33.639971,-112.029015,
Phoenix,85032,Loft Again,33.6237164,-112.0304719,
Phoenix,85032,Casey Jones Grill,33.6405727,-112.0202933,American
Phoenix,85032,Islands Restaurant,33.6040525,-111.977892,American
Phoenix,85032,Breadcrafters Bakery & Cafe,33.6032634,-111.9781795,
Phoenix,85032,Wetzel's Pretzels,33.62265722,-112.0010598,
Phoenix,85032,IHOP,33.5993289,-111.9871884,
Phoenix,85032,Fry's & Fry's Marketplace,33.6419098,-112.0112497,
Phoenix,85032,Sonic,33.625997,-111.9955378,
Phoenix,85032,Jamba Juice,33.612391,-111.994052,
Phoenix,85032,Dairy Queen,33.641019,-112.005278,
Phoenix,85032,Brigett's Last Laugh,33.643007,-112.031316,
Phoenix,85032,Albertsons-Osco,33.624718,-111.979056,
Phoenix,85032,Dennys,33.6401898,-112.0129397,
Phoenix,85032,Smoothie King,33.6236496,-111.9784164,
Phoenix,85032,Einstein Bros Bagels,33.6121713,-111.994222,
Phoenix,85032,Whiskey River Saloon,33.628628,-112.013095,
Phoenix,85032,Yusef's Middle Eastern Restaurant Grocery & Deli,33.6256435,-112.0313324,
Phoenix,85032,Brennan's Pub & Grub,33.6412984,-112.0063922,Irish
Phoenix,85032,Whataburger,33.640244,-112.0196286,American
Phoenix,85032,Rainbow Donuts,33.629885,-112.031241,
Phoenix,85032,One Stop Nutrition,33.6283281,-112.013151,
Phoenix,85032,Paradise Lounge,33.5991773,-111.9821729,
Phoenix,85032,Jack in the Box,33.641168,-111.994825,
Phoenix,85032,Shogun,33.6003783,-111.9786507,Japanese
Phoenix,85032,Coco's Family Restaurant,33.600271,-111.985242,American
Phoenix,85032,Safeway Food & Drug,33.609923,-112.014489,
Phoenix,85032,Sprouts Farmers Market,33.5991297,-111.9800877,
Phoenix,85032,Greenway Village Cocktail Lounge,33.6246859,-112.014764,
Phoenix,85032,Chompie's,33.6283281,-112.013151,
Phoenix,85032,Jack in the Box,33.641141,-112.030397,
Phoenix,85032,Eddie's Tavern,33.5982552,-112.0133874,
Phoenix,85032,Dunkin' Donuts,33.638428,-111.9798188,
Phoenix,85032,40th Street Cafe,33.626712,-111.99569,American
Phoenix,85032,RJ's Sports Grill,33.597332,-112.013936,
Phoenix,85032,5 & Diner,33.6040477,-111.9780689,
Phoenix,85032,Paradise Bakery,33.5990613,-111.9819747,
Phoenix,85032,Honeybaked Ham Company,33.5991171,-111.9822783,
Paradise Valley,85253,Honeybaked Ham Company,33.5988406,-111.98118,
Phoenix,85032,Marie Callender's Restaurants & Bakeries,33.5990115,-111.9816904,
Phoenix,85032,Cold Stone Creamery,33.6005307,-111.9794072,
Phoenix,85032,Baskin-Robbins,33.5986387,-111.985214,
Phoenix,85032,See's Candies,33.5991953,-111.9817259,
Phoenix,85034,Rimrock Bar & Grille,33.425077,-111.98091,American
Phoenix,85034,T C B Y Yogurt,33.435146,-111.998367,
Phoenix,85034,Bobby C's Bar & Lounge,33.448422,-112.057219,
Phoenix,85034,Kodiak Produce & Storage,33.427782,-112.059174,
Phoenix,85034,Waffle House,33.445002,-112.030738,American
Phoenix,85034,Rodehouse Restaurant,33.4253128,-112.0291199,
Phoenix,85034,Jack in the Box,33.4484514,-112.0131678,
Phoenix,85034,Wendy's,33.435146,-111.998367,
Phoenix,85034,Waffle House,33.4155715,-112.0081633,
Phoenix,85034,Paradise Bakery & Cafe,33.43406473,-111.9944572,
Phoenix,85040,McDonald's,33.407505,-112.013804,
Phoenix,85007,AZTECA Bakeries & Restaurant,33.4541453,-112.0827178,Mexican
Phoenix,85040,La Mejor,33.3936676,-112.0473389,
Phoenix,85040,Pro's Ranch Market,33.3935902,-112.0725247,
Phoenix,85040,Carnicerias Rancho Grande,33.4082845,-112.0732838,
Phoenix,85040,Peppersauce Cafe,33.412592,-111.996111,
Phoenix,85040,Taco Bell,33.406735,-111.97758,Mexican
Phoenix,85040,Whataburger,33.4057406,-111.9788325,American
Phoenix,85040,George & Dragon II English Restaurant Pub,33.4089039,-111.9783494,American
Phoenix,85042,Subway,33.3777969,-112.0653054,
Phoenix,85042,Summers Fruit Barn,33.3781775,-112.0220629,
Phoenix,85042,Safeway Food & Drug,33.3911582,-112.0488739,
Phoenix,85042,Sonic Drive-In,33.3784149,-112.069534,American
Phoenix,85042,Farm At South Mountain,33.3906771,-112.0129108,American
Phoenix,85042,Taco Bell,33.378712,-112.064795,Mexican
Phoenix,85042,Jack-In-the Box,33.3924049,-111.978725,
Phoenix,85044,Walgreens,33.3488857,-111.9787644,
Ahwatukee,85044,Hi-Health ,33.320339,-111.97731,
Phoenix,85044,Native Grill & Wings,33.3217349,-111.975816,American
Phoenix,85044,Maggiemoo's Ice Cream & Treatery,33.3212765,-111.9777098,
Phoenix,85044,McDonald's,33.331156,-111.981475,
Phoenix,85044,Subway,33.3211166,-111.9792734,
Phoenix,85044,Sakana Sushi & Grill,33.347684,-111.976156,Japanese
Phoenix,85044,IHOP,33.320411,-111.9754,American
Phoenix,85044,The Nosh Cafe,33.3310474,-111.9795988,
Phoenix,85044,Dairy Queen,33.3309485,-111.9802259,
Phoenix,85044,Seattle Espresso,33.321342,-111.982554,
Ahwatukee,85044,My Wine Cellar,33.3339212,-111.9778633,
Phoenix,85044,Water and Ice Ahwatukee,33.33042964,-111.9802952,
Phoenix,85044,The Melting Pot,33.316214,-112.004239,American
Phoenix,85044,Mimi's Cafe,33.3194033,-111.9777855,American
Phoenix,85044,Einstein Bros Bagels,33.3190861,-111.9800631,
Phoenix,85044,Jamba Juice,33.3206518,-111.9913946,
Phoenix-Ahwatukee,85044,Nothing Bundt Cakes,33.3214845,-111.9825868,
Phoenix,85044,Los Taquitos,33.3480616,-111.9820214,Mexican
Phoenix,85044,Taco Bell,33.331595,-111.979655,Mexican
Phoenix,85044,Cactus Jack's Bar & Grill,33.3480616,-111.9820214,American
Phoenix,85044,Wendy's,33.320391,-111.977841,
Phoenix,85044,Boston Market,33.320241,-111.982787,American
Phoenix,85044,RA Sushi Bar Restaurant,33.3197625,-111.9780071,Japanese
Glendale,85304,Kirks Korner,33.5823067,-112.1688451,
Phoenix,85048,4 Sons Food Stores,33.306489,-112.052879,
Phoenix,85048,Subway,33.3067499,-112.0538431,
Phoenix,85048,Pro Edge Cutlery,33.311257,-112.054322,
Phoenix,85048,Walgreens,33.305117,-112.054812,
Phoenix,85048,McDonald's,33.3058077,-112.0561283,
Phoenix,85048,Chris' Water & Ice,33.3067499,-112.0538431,
Phoenix,85048,Hooters,33.3055166,-111.9798699,
Phoenix,85048,Waffle House,33.3057984,-111.9791357,American
Phoenix,85048,Baskin-Robbins,33.304667,-111.9945819,
Phoenix,85048,Sonic,33.305835,-111.990675,
Phoenix,85048,Kfc,33.305666,-111.999568,
Phoenix,85048,Carl's Jr,33.3054462,-111.977602,
Phoenix,85048,Taco Bell,33.304636,-111.997281,Mexican
Phoenix,85048,Starbucks,33.3051521,-111.9864053,
Phoenix,85048,Cracker Barrel Old Country Store,33.30617,-111.9747,
Phoenix,85050,Albertsons,33.6770533,-111.9772656,
Phoenix,85050,Keva Juice,33.678615,-111.9746066,
Phoenix,85050,Malee's Thai Bistro,33.678615,-111.9746066,Thai
Phoenix,85050,Rocky Mountain Chocolate Factory,33.678615,-111.9746066,
Pheonix,85050,Fatburger,33.678615,-111.9746066,
Phoenix,85050,Starbucks,33.6914,-111.9975,
Phoenix,85050,Panda Express,33.678615,-111.9746066,Chinese
Phoenix,85050,Paradise Bakery,33.67696416,-111.9724374,
Phoenix,85050,Islands Restaurant,33.678615,-111.9746066,American
Phoenix,85050,Rock Bottom Restaurant & Brewery,33.69311393,-111.9978433,American
Phoenix,85050,In-N-Out Burger,33.67919164,-111.9767406,
Phoenix,85050,Einstein Bros Bagels,33.69482782,-112.0023065,
Phoenix,85050,Marcel's Bar & Grill,33.65549506,-112.0155072,American
Phoenix,85050,Walgreens,33.65445911,-112.030313,
Phoenix,85054,Elephant Bar Restaurant,33.6554989,-111.9299197,American
Phoenix,85086,Subway,33.7997742,-112.1262605,
Phoenix,85086,McDonald's,33.7983161,-112.1282089,
Anthem,85086,Subway,33.8649126,-112.1388544,
Anthem,85086,Safeway,33.8649126,-112.1388544,
Anthem,85086,Starbucks,33.8667772,-112.1368293,
Phoenix,85086,Albertsons,33.79942703,-112.126976,
Phoenix,85086,4 Sons Food Stores,33.7991505,-112.1285125,
Mesa,85202,Native Grill & Wings,33.3636242,-111.8736054,American
Chandler,85224,Giado World Foods,33.348908,-111.874796,
Mesa,85202,Sonic Drive-In,33.3612015,-111.8764432,American
Mesa,85202,Whataburger,33.4071521,-111.8734733,American
Mesa,85202,Popeye's Chicken & Biscuits,33.4069709,-111.8752165,
Mesa,85202,O'kelly's,33.364582,-111.87939,
Mesa,85202,Starbucks,33.3835535,-111.8744223,
Mesa,85202,Albertsons,33.37765884,-111.8769836,
Mesa,85202,Hollywood Alley,33.3786447,-111.8912399,
Mesa,85202,Mom's Bakery,33.363223,-111.861315,
Mesa,85202,The Good Egg - Dobson,33.3830059,-111.8745646,
Mesa,85202,Starbucks,33.3925142,-111.862526,
Mesa,85202,QuikTrip,33.4069021,-111.8816172,
Mesa,85202,Village Inn,33.3933155,-111.8741772,American
Mesa,85202,Jack in the Box,33.3789902,-111.8607033,
Mesa,85202,Safeway Food & Drug,33.3631957,-111.859889,
Mesa,85202,Coco's Family Restaurant,33.378957,-111.875732,American
Mesa,85202,Uncle Monkeys,33.3932821,-111.8684759,
Mesa,85202,Jupe's,33.3637516,-111.8914674,
Mesa,85202,See's Candy Shops,33.3934902,-111.8703752,
Mesa,85202,Carl's Jr.,33.3934584,-111.8627477,
Mesa,85204,Jack in the Box,33.395303,-111.753355,
Mesa,85204,Sonic,33.392401,-111.754453,
Mesa,85204,Whole Grain Natural Bread,33.3924984,-111.7538097,
Mesa,85204,Ah-So Japanese Restaurant,33.380086,-111.787866,Japanese
Mesa,85204,Famous Sam's Restaurant & Sports Bar,33.379574,-111.772697,American
Mesa,85204,Nielsen's Frozen Custard,33.393819,-111.790032,
Mesa,85204,Starbucks,33.381412,-111.787222,
Mesa,85204,Cold Stone Creamery,33.38323,-111.8026941,
Mesa,85204,Einstein Bros,33.3799452,-111.7882587,
Mesa,85204,Old Country Buffet,33.380894,-111.806864,American
Mesa,85204,Applebee's,33.379496,-111.787773,American
Mesa,85204,Egg & I Cafe,33.3939166,-111.7872721,
Mesa,85204,Sekai Sushi,33.396508,-111.7878958,Japanese
Mesa,85204,Trader Joe's,33.3790954,-111.7875865,
Mesa,85204,The Seafood Market,33.380515,-111.788963,
Mesa,85204,Chili's Grill & Bar,33.383844,-111.804933,American
Mesa,85204,Starbucks,33.3846485,-111.8027455,
Mesa,85204,Whataburger,33.407683,-111.7715589,American
Mesa,85204,Native Grill & Wings,33.3870582,-111.7881967,American
Mesa,85204,Mesa Frozen Yogurt,33.390352,-111.789837,
Mesa,85204,Starbucks,33.3806444,-111.7533458,
Mesa,85204,Walmart Supercenter,33.3805863,-111.8031594,
Mesa,85204,Burger King,33.3940112,-111.787713,
Mesa,85204,Big Bowl Restaurant,33.4082719,-111.7902823,Chinese
Mesa,85206,Hooters,33.385489,-111.686036,
Mesa,85206,QuikTrip,33.382898,-111.737679,
Mesa,85206,Safeway Food & Drug,33.394778,-111.752289,
Mesa,85206,McDonald's,33.390833,-111.685338,
Mesa,85206,Chili's,33.389268,-111.684212,American
Mesa,85206,Quiznos,33.3941836,-111.7210886,
Mesa,85206,Annabelle's Dining & Lounge,33.4051581,-111.6842427,American
Mesa,85206,Coco's Family Restaurant,33.390007,-111.683596,American
Mesa,85206,Fry's Food Stores of Arizona,33.380405,-111.685984,
Mesa,85206,Chick-Fil-A,33.390567,-111.6903269,
Mesa,85206,Paradise Bakery,33.3936711,-111.6892126,
Mesa,85206,Old Country Buffet,33.3936675,-111.6886985,American
Mesa,85206,Baskin-Robbins,33.392643,-111.684083,
Mesa,85206,Dairy Queen,33.4095754,-111.6846283,
Mesa,85209,Starbucks,33.3784222,-111.6881169,
Mesa,85209,Wendy's,33.390046,-111.682305,
Mesa,85210,Arby's,33.3954152,-111.840228,
Mesa,85210,Taco Bell,33.390448,-111.839987,Mexican
Mesa,85210,Subway,33.365327,-111.860206,
Mesa,85210,McDonald's,33.3923472,-111.840654,
Mesa,85210,Sonic Drive-In,33.3937162,-111.8444611,
Mesa,85210,El Pollo Loco,33.3966134,-111.8405306,Mexican
Mesa,85210,Ichi Ban Japanese,33.3783572,-111.8591926,Japanese
Mesa,85210,Dairy Queen,33.3646526,-111.8598905,
Mesa,85210,Food City,33.4001063,-111.8570085,
Mesa,85210,Waffle House,33.381658,-111.839632,American
Mesa,85210,Kay's Place,33.4090855,-111.856422,
Mesa,85210,Denny's,33.393702,-111.8406111,American
Mesa,85210,Mimis Cafe,33.3919992,-111.8577518,American
Mesa,85210,Schlotzsky's,33.382674,-111.840739,
Mesa,85210,Phu Thanh,33.393607,-111.849314,Vietnamese
Mesa,85210,House of Fitness,33.3949771,-111.8413719,
Mesa,85210,Carl's Jr.,33.381293,-111.840736,
Mesa,85210,Dunkin Donuts,33.3652385,-111.8585968,
Mesa,85210,Pub'n Grub,33.363675,-111.858146,American
Mesa,85210,Steaks R US,33.3653757,-111.8591265,
Mesa,85210,Crackers & Co Cafe,33.383949,-111.843786,American
Mesa,85210,Bahama Buck's,33.39298977,-111.8248507,
Mesa,85210,Septembers,33.393841,-111.842039,
Mesa,85212,Power Road Farmers Market,33.3422512,-111.6862447,
Mesa,85212,Starbucks,33.377389,-111.635553,
Mesa,85212,Flight Deck Cafe,33.3075041,-111.6700247,
Gold Canyon,85218,Jack in the Box,33.366129,-111.476302,
Gold Canyon,85218,Gecko Espresso,33.3677679,-111.4759135,
Gold Canyon,85218,Bashas'markets Inc,33.3664206,-111.4747934,
Gold Canyon,85218,McDonalds,33.358449,-111.467314,
Apache Junction,85120,Walgreens,33.412376,-111.546801,
Apache Junction,85120,Walmart Supercenter,33.4139397,-111.5754304,
Apache Junction,85120,Taco Bell,33.41311,-111.54723,Mexican
Apache Junction,85220,Cobb's Restaurant & Lounge,33.415764,-111.557015,Italian
Apache Junction,85220,Dairy Queen,33.435696,-111.548809,
Apache Junction,85220,Feedbag Restaurant,33.4122714,-111.550668,
Apache Junction,85220,Superstition Ranch Market,33.415741,-111.584233,
Casa Grande,85222,Sonic Restaurant,32.880072,-111.727495,
Casa Grande,85122,Walmart,32.877785,-111.712265,
Casa Grande,85122,McMashers Sports Bar & Grill,32.87852396,-111.7288113,American
Casa Grande,85222,Silver Bullet Bar,32.8870976,-111.7574975,
Casa Grande,85222,Dairy Queen,32.879237,-111.751265,
Casa Grande,85222,Dell's Pizza,32.8960549,-111.756971,
Casa Grande,85222,Whataburger,32.8792525,-111.7483087,American
Casa Grande,85222,McDonald's,32.877785,-111.712242,
Casa Grande,85222,Cook E Jar Bakery & Cafe,32.8773814,-111.7536705,
Chandler,85224,Angel Sweet Gelato,33.3060616,-111.8748501,
Chandler,85224,I-Mart,33.3191975,-111.8591652,
Chandler,85224,Taco Bell,33.335657,-111.859038,Mexican
Chandler,85224,Manila Sunrise Sari-Sari Store,33.351069,-111.857927,
Chandler,85224,Denny's,33.306513,-111.872409,
Chandler,85224,Starbucks,33.3355472,-111.8779245,
Chandler,85224,Desert Sage Herbs Holistic Center For Body Mind & Spirit,33.331888,-111.859943,
Chandler,85224,Boston Market,33.321004,-111.8596813,American
Chandler,85224,Wendy's,33.305579,-111.862189,
Chandler,85224,Pesto's Pizza & Wine Bar,33.321726,-111.875811,
Chandler,85224,Bashas',33.306407,-111.875936,
Chandler,85224,Chase's Diner,33.3358289,-111.859503,
Chandler,85224,Thrifty Ice Cream,33.320489,-111.875689,
Chandler,85224,Circle K,33.3283451,-111.8585192,
Chandler,85224,Einstein Bros Bagels,33.30664882,-111.8891044,
Chandler,85224,Subway,33.3073697,-111.8747757,
Chandler,85224,Coffee Rush,33.3191497,-111.8740975,
Chandler,85224,Mucho Taco,33.3196157,-111.8591805,Mexican
Chandler,85224,Starbucks,33.307272,-111.874253,
Chandler,85224,Jamba Juice,33.3365557,-111.8583888,
Chandler,85224,Dairy Queen,33.3359364,-111.8763158,
Chandler,85224,The Coffee Bean & Tea Leaf,33.3059862,-111.88665,
Chandler,85224,Lee Lee Oriental Supermarket,33.3361505,-111.8743381,
Chandler,85224,St Katherine Greek Orthodox Church,33.346843,-111.877144,
Chandler,85224,Ninja Japanese Restaurant,33.3399193,-111.8595356,Japanese
Phoenix,85028,Paradise Juice,33.5846244,-111.9777181,
Chandler,85224,Mimis Cafe,33.306411,-111.89307,American
Chandler,85224,Shimogamo,33.3336827,-111.8775741,Japanese
Chandler,85224,McDonald's,33.335621,-111.875061,
Chandler,85224,Speedsmart,33.334655,-111.858561,
Chandler,85224,McDonald's,33.3059872,-111.8865609,
Chandler,85224,Carl's Jr.,33.335132,-111.8590785,
Chandler,85226,Kai,33.2664769,-111.9918702,American
Chandler,85226,Target Stores,33.29596,-111.89981,
Chandler,85226,Albertsons,33.3219318,-111.9127918,
Chandler,85226,Starbucks,33.3173169,-111.9684672,
Chandler,85226,Walgreens,33.3052721,-111.9277565,
Chandler,85226,Aj's Purveyor of Fine Foods,33.31998046,-111.9584301,
Chandler,85226,Cold Stone Creamery,33.3056618,-111.8975543,
Chandler,85226,Auntie Anne's,33.305681,-111.897553,
Chandler,85226,Fuzziwig's Candy Factory,33.3055295,-111.9027999,
Chandler,85226,The Good Egg - Ray,33.320344,-111.926391,
Chandler,85226,Starbucks,33.3212539,-111.91169,
Chandler,85226,Taco Bell,33.305406,-111.938776,Mexican
Chandler,85226,Cost Plus World Market,33.316916,-111.967074,
Chandler,85226,Wonderful Wanda's,33.304845,-111.951499,
Chandler,85226,Chipotle,33.31779992,-111.9687285,Mexican
Chandler,85226,All Starz Sports Bar & Grill,33.304861,-111.927065,American
Chandler,85226,The Cheesecake Factory,33.3022462,-111.897967,American
Chandler,85226,Kona Grill,33.3016651,-111.8980181,American
Chandler,85226,Wildflower Bread Company,33.30192107,-111.8970361,
Chandler,85226,Godiva Chocolatier,33.305681,-111.897553,
Chandler,85226,Pasta Pomodoro,33.3055803,-111.9003957,
Chandler,85226,Paradise Bakery,33.3055295,-111.9027999,
Chandler,85226,Honmachi Grill,33.3057002,-111.9016698,Japanese
Chandler,85226,Wendy's,33.304722,-111.944321,
Chandler,85226,Wetzel's Pretzels,33.305515,-111.9027992,
Chandler,85226,The Keg Steakhouse + Bar,33.3056888,-111.8973083,
Chandler,85226,Espinoza's Market,33.3052737,-111.9087675,
Chandler,85226,BJ's Restaurant & Brewhouse,33.29938698,-111.8984394,American
Chandler,85226,Starbucks,33.3056767,-111.8976863,
Chandler,85226,Fleming's Prime Steakhouse & Wine Bar,33.3184674,-111.9682552,
Chandler,85226,Whataburger,33.304812,-111.9682754,American
Chandler,85226,Fry's Food Stores of Arizona Inc,33.3187146,-111.928076,
Chandler,85226,Teakwoods Tavern & Grill,33.3197572,-111.9447195,
Chandler,85226,McDonald's,33.3056416,-111.9451182,
Chandler,85226,Marie Callender's Restaurants & Bakeries,33.30512,-111.9689603,
Chandler,85226,Fairytale Brownies,33.310833,-111.950669,
Florence,85132,River Bottom Grill - East Valley Destination,33.05472548,-111.379125,American
Florence,85132,Rancho Sonora Inn & Rv Park,32.960398,-111.338143,
Florence,85232,Eugene & Kim's Place,33.030992,-111.38562,
Gilbert,85234,Safeway Food & Drug,33.377881,-111.723855,
Gilbert,85234,McDonald's,33.365059,-111.755433,
Gilbert,85234,Seattle Espresso,33.3667149,-111.7561115,
Gilbert,85234,El Pollo Loco,33.3788849,-111.7843587,Mexican
Gilbert,85234,Champions Sports Saloon,33.354126,-111.789259,
Gilbert,85234,Arby's,33.3790814,-111.7551082,
Gilbert,85234,Crabby Don's Bar & Grill,33.378352,-111.748897,American
Gilbert,85234,Einstein Bros Bagels,33.3665704,-111.7557902,
Gilbert,85234,Jamba Juice,33.378423,-111.787808,
Gilbert,85234,McDonald's,33.378138,-111.722755,
Gilbert,85234,Liberty Market,33.354768,-111.7898327,American
Gilbert,85234,Taco Bell,33.379067,-111.753495,Mexican
Gilbert,85234,KC's Sushi and TV Bar,33.3655704,-111.7905611,
Gilbert,85234,Gilbert Convenient Mart,33.35232,-111.789999,
Gilbert,85234,Dairy Queen,33.3588348,-111.7893496,
Gilbert,85234,The Farmhouse Restaurant,33.3545993,-111.7898391,American
Gilbert,85234,Wendy's,33.3788534,-111.7863472,
Gilbert,85234,Nielsen's Frozen Custard On Baseline,33.37876,-111.760998,
Queen Creek,85242,Safeway Food & Drug,33.2662729,-111.6836514,
Queen Creek,85242,Gantzel Farms Country Store,33.24832,-111.563839,
Queen Creek,85140,The Pork Shop,33.2197179,-111.5297743,
Queen Creek,85242,Schnepf Farms,33.223783,-111.59601,
Queen Creek,85242,Discount Beverage Outlet,33.2482871,-111.6344838,
Queen Creek,85242,Sweet Water Eatery,33.211719,-111.672754,
Queen Creek,85242,Super Carniceria El Torito,33.211781,-111.686163,
Gilbert,85296,The Brownie Connection,33.343131,-111.789408,
Chandler,85286,Walgreens,33.2770582,-111.8583383,
Chandler,85248,Mikado Sushi,33.2611744,-111.8572231,
Chandler,85248,Subway,33.261388,-111.857235,
Chandler,85248,Sidelines Tavern & Grill,33.26238426,-111.8602661,American
Sun Lakes,85248,Bashas' ,33.2181007,-111.8588719,
Chandler,85248,Arby's,33.2631562,-111.8589783,
Chandler,85248,Taco Bell,33.26294545,-111.8596,Mexican
Chandler,85248,Safeway Food & Drug,33.23366165,-111.8599091,
Chandler,85248,McDonald's,33.234575,-111.85942,
Sun Lakes,85248,Burger King,33.218488,-111.874709,
Chandler,85248,Albertsons,33.26065445,-111.8574219,
Chandler,85286,Burger King,33.278155,-111.8583917,
Chandler,85248,Fry's Food & Drug Stores,33.276004,-111.8587582,
Scottsdale,85250,Goldmans Deli,33.5376434,-111.908547,
Scottsdale,85260,Hi-Health ,33.6272208,-111.8956503,
Scottsdale,85250,Paradise Bakery,33.5243639,-111.8985922,
Scottsdale,85250,McDonald's,33.538426,-111.88674,
Scottsdale,85250,Hi-Health,33.5385476,-111.87838,
Phoenix,85028,Albertsons,33.58336173,-111.9777605,
Scottsdale,85250,Starbucks,33.52663,-111.925655,
Scottsdale,85250,Fleming's Prime Steakhouse & Wine Bar,33.53026968,-111.9263506,
Scottsdale,85250,Sakana Sushi & Grill,33.5379496,-111.9060327,Japanese
Scottsdale,85260,Chompie's Deli,33.5810432,-111.880204,
Scottsdale,85254,Fitness Cafe,33.6097856,-111.927307,
Scottsdale,85250,Randy's Restaurant & Ice Cream,33.5094234,-111.9115638,American
Scottsdale,85250,Bashas',33.52384485,-111.899613,
Scottsdale,85250,4th Floor Grille & Sports Bar,33.5100592,-111.9255918,American
Scottsdale,85250,5 & Diner,33.53814,-111.885036,American
Tempe,85281,Romancing the Bean,33.43175,-111.938133,
Scottsdale,85250,Country Glazed Ham,33.5250892,-111.9253313,
Scottsdale,85250,The Good Egg - Hilton Village,33.5263541,-111.9249635,
Scottsdale,85250,Tallyho Cocktail Lounge,33.523891,-111.8979869,
Scottsdale,85250,Safeway,33.5094222,-111.9105349,
Scottsdale,85254,Devil's Martini North,33.5847015,-111.9257372,
Scottsdale,85254,FOX Sports Grill,33.633717,-111.924669,American
Scottsdale,85254,Bacchus Wine Made Simple,33.622874,-111.9293766,
Scottsdale,85254,Fry's Food Stores,33.624955,-111.944566,
Scottsdale,85254,Subway,33.61411,-111.927146,
Scottsdale,85254,Benihana,33.6345046,-111.9253792,Japanese
Scottsdale,85254,The Good Egg - Thunderbird,33.6138619,-111.9268525,
Scottsdale,85254,Chop and Wok Gourmet Chinese,33.5824041,-111.9267367,Chinese
Scottsdale,85254,Sushi On Shea,33.5826712,-111.929119,Japanese
Scottsdale,85254,Chocolate Star Bakery,33.585636,-111.926761,
Scottsdale,85254,The Cheesecake Factory,33.62499281,-111.9262826,American
Scottsdale,85254,Einstein Bros Bagels,33.58347203,-111.9760119,
Scottsdale,85254,Jolta Java,33.6175068,-111.9262566,
Scottsdale,85254,Baja Fresh Mexican Grill,33.6363383,-111.9213957,
Scottsdale,85254,Cost Plus World Market,33.6340901,-111.9253782,
Scottsdale,85254,Arena Sports Grill,33.639896,-111.94439,American
Scottsdale,85254,Handlebar-J,33.583141,-111.927518,American
Scottsdale,85254,Walgreens,33.582069,-111.9300684,
Scottsdale,85254,Circle K Stores,33.5824552,-111.9266132,
Scottsdale,85254,RA Sushi Bar Restaurant,33.6230152,-111.9297079,Japanese
Scottsdale,85254,Taco Bell,33.61416,-111.926315,Mexican
Scottsdale,85254,Cold Stone Creamery,33.62402708,-111.9283783,
Scottsdale,85253,New York Bagels 'N Bialys,33.5796807,-111.9271351,
Scottsdale,85254,Safeway Food & Drug,33.6251792,-111.9404813,
Phoenix,85014,Healthy Habit,33.5250871,-112.0649769,
Scottsdale,85256,Casino Arizona,33.4543305,-111.8856396,
Scottsdale,85258,Hiro Sushi,33.5705669,-111.886606,Japanese
Scottsdale,85258,Walgreens,33.5747251,-111.8619471,
Scottsdale,85258,Aj's Purveyor of Fine Foods,33.5733051,-111.8629763,
Scottsdale,85258,Taco Bell,33.57837,-111.88661,Mexican
Scottsdale,85258,Goldie's Neighborhood Sports Cafe,33.57476105,-111.8618274,American
Scottsdale,85258,Chipotle Mexican Grill,33.5572926,-111.8994592,Mexican
Scottsdale,85258,JP Pancake,33.5737667,-111.9055104,
Scottsdale,85258,Fry's Marketplace,33.57027361,-111.8890893,
Scottsdale,85258,Schlotzsky's,33.5775051,-111.8859721,
Scottsdale,85258,Fry's Signature,33.5811638,-111.8863978,
Scottsdale,85258,Wendy's,33.5709471,-111.8875996,
Scottsdale,85258,Whataburger,33.5771223,-111.8862674,American
Scottsdale,85258,Lox  Stock & Bagel,33.54422935,-111.9054723,
Scottsdale,85258,Zipps Sports Grill,33.5547175,-111.9002604,American
Scottsdale,85258,T C B Y Yogurt,33.5550264,-111.8990269,
Scottsdale,85258,Galileo Bread and Coffee,33.5737667,-111.9055104,
Scottsdale,85260,Safeway,33.6201025,-111.8740586,
Scottsdale,85260,Walmart Supercenter,33.6244375,-111.8934375,
Scottsdale,85260,Circle K,33.611788,-111.86412,
Scottsdale,85260,Convenient Corner Market,33.59454346,-111.8803406,
Scottsdale,85260,Mimi's Cafe,33.58282973,-111.8871027,American
Scottsdale,85260,Albertsons,33.62858264,-111.8873118,
Scottsdale,85260,Bashas',33.638932,-111.8644172,
Scottsdale,85260,Subway,33.639419,-111.864038,
Scottsdale,85260,Sprouts Farmers Market,33.5811962,-111.880627,
Scottsdale,85260,Carl's Jr,33.62381,-111.8960444,
Scottsdale,85260,White Lion Tea,33.63047,-111.914543,
Scottsdale,85260,Jack In the Box,33.62073368,-111.875172,
Scottsdale,85260,Jamba Juice,33.6285997,-111.8893138,
Scottsdale,85260,Boston Market,33.6295263,-111.8888387,American
Scottsdale,85260,Chipotle Mexican Grill,33.62229452,-111.8739993,Mexican
Scottsdale,85260,Starbucks,33.58083038,-111.8818151,
Scottsdale,85260,Starbucks,33.62124682,-111.8736674,
Mesa,85210,Alpine Valley Bread Co,33.3946042,-111.8382217,
Scottsdale,85260,Liquor Vault,33.581204,-111.880688,
Scottsdale,85260,Sushi Ko Restaurant,33.581228,-111.880641,
Scottsdale,85260,Chipotle Mexican Grill,33.5803924,-111.8804955,Mexican
Scottsdale,85260,Wendy's,33.6262441,-111.8912584,
Scottsdale,85260,K O'Donnell's Sports Bar & Grill,33.620547,-111.898142,American
Scottsdale,85260,Quiznos,33.6227073,-111.8970828,
Scottsdale,85260,Arbys,33.5822191,-111.9242461,
Scottsdale,85260,Wildflower Bread Company,33.6118189,-111.912939,American
Scottsdale,85260,Four Peaks Grill & Tap,33.6283902,-111.893335,American
Scottsdale,85260,Big City Bagels & Deli,33.627288,-111.89567,
Scottsdale,85260,Wildflower Bread Company,33.62773584,-111.8916025,
Scottsdale,85260,Lucy's Cafe & Grill,33.6260369,-111.915163,
Scottsdale,85260,Rock Bottom Restaurant & Brewery,33.582876,-111.895256,American
Scottsdale,85260,China Mist Tea Company,33.6289641,-111.9195933,
Scottsdale,85262,Ben & Jerry's Scoop Shop,33.7981038,-111.9269771,
Scottsdale,85262,Starbucks,33.7799911,-111.9235832,
Scottsdale,85266,The Good Egg - Carefree,33.7969402,-111.9275787,
Scottsdale,85262,Subway,33.7988519,-111.9310315,
Fountain Hills,85268,Safeway Food & Drug,33.610504,-111.727897,
Fountain Hills,85268,Burger King,33.609647,-111.729332,
Fountain Hills,85268,Dj's Bagel Cafe,33.6099066,-111.7294884,
Fountain Hills,85268,Grapeables Fine Wines,33.601491,-111.7153845,
Fountain Hills,85268,Starbucks,33.609687,-111.72537,
Fountain Hills,85268,Chocofin Fine Handmade Chocolates,33.6083312,-111.7201364,
Fountain Hills,85268,McDonald's,33.5740849,-111.714564,
Fountain Hills,85268,Bashas',33.6082597,-111.7196207,
Tempe,85282,QuikTrip,33.407958,-111.922255,
Tempe,85282,Whole Foods Market,33.379584,-111.9297888,
Tempe,85282,Bashas',33.394647,-111.907936,
Tempe,85282,Back East Bagels,33.3929982,-111.9127636,
Tempe,85282,Honey Moon Sweets,33.393544,-111.948187,
Tempe,85283,Boxed Greens,33.35367,-111.964931,
Tempe,85282,Crockett Honey Co,33.4003517,-111.953852,
Tempe,85282,Applebee's,33.4074342,-111.9256954,American
Tempe,85282,Panda Express,33.3852846,-111.964558,
Tempe,85282,Rocky Mountain Chocolate Factory,33.383123,-111.964485,
Tempe,85282,Final Round Sports Bar & Grill,33.3792925,-111.9400578,American
Tempe,85282,Xtreme Bean Coffee Co,33.3926383,-111.9110915,
Tempe,85282,Long John Silver's,33.3925512,-111.9080673,
Tempe,85282,Gloria Jean's Gourmet Coffees,33.3852846,-111.964558,
Tempe,85282,Water 'n Ice,33.3947699,-111.9088938,
Tempe,85282,Sunflower Market,33.3931129,-111.9111047,
Tempe,85282,Safeway Food & Drug,33.4088243,-111.9251506,
Tempe,85282,Fry's Food Stores of Arizona,33.3939201,-111.9244358,
Tempe,85282,Paradise Bakery & Cafe,33.383123,-111.964485,
Tempe,85282,Doc & Eddy's,33.379229,-111.927105,
Tempe,85282,Boston Market,33.3912468,-111.9089862,American
Tempe,85282,McDonald's,33.3784609,-111.9286722,
Tempe,85282,Gold Bar Espresso,33.39468695,-111.9080596,
Tempe,85282,Denny's Restaurant,33.38463,-111.925863,
Tempe,85282,Wendys,33.4079428,-111.9650195,
Tempe,85282,Tailgate Sports Bar & Grill,33.4078912,-111.9538452,American
Tempe,85282,Vitamin World,33.3852846,-111.964558,
Tempe,85282,Starbucks,33.3852846,-111.964558,
Tempe,85282,Taco Bell,33.392586,-111.907155,
Tempe,85282,Starbucks,33.3785723,-111.9286824,
Tempe,85282,Sonic Drive-In,33.407578,-111.9220955,
Tempe,85282,Native Grill & Wings,33.407082,-111.917213,American
Tempe,85282,Walgreens,33.4068307,-111.9404711,
Tempe,85282,Arby's,33.4073732,-111.9470397,
Tempe,85282,Valley Fair Liquor,33.3928688,-111.938993,
Tempe,85282,Sam's Liquors,33.407117,-111.954931,
Tempe,85282,Horse & Hound Sports Grill,33.4075588,-111.9169676,American
Tempe,85282,Prankster's Gar and Brill,33.407769,-111.9230421,
Tempe,85282,Capistrano's Bakery,33.39446,-111.950007,
Tempe,85282,Morning Star Cafe,33.4001481,-111.9576961,
Tempe,85282,Q & Brew,33.3917066,-111.9405715,
Tempe,85282,Time Out Lounge,33.3945024,-111.9395381,
Tempe,85282,Palo Verde Lounge,33.4073823,-111.9523898,
Tempe,85282,Market Cafe,33.4035371,-111.9709396,
Tempe,85282,Carniceria Sonora,33.394393,-111.977873,
Tempe,85284,McDonald's,33.3496,-111.912291,
Tempe,85284,Walmart Supercenter,33.351013,-111.9613532,
Tempe,85284,Graham Central Station,33.3459373,-111.9636701,
Tempe,85284,Coco's Family Restaurant,33.3487184,-111.9636371,American
Tempe,85284,Skip & Jan's Sports Bar,33.3459178,-111.9631535,American
Tempe,85284,Einstein Bros Bagels,33.321492,-111.929858,
Tempe,85284,Seattle Espresso Inc,33.349481,-111.9477683,
Tempe,85284,Subway,33.3351812,-111.9071248,
Tempe,85284,Life Cafe,33.3411421,-111.9648231,
Tempe,85284,QuikTrip,33.3337794,-111.9551158,
Tempe,85284,Safeway,33.3483519,-111.9137063,
Tempe,85284,Burger King,33.3492198,-111.9574738,
Tempe,85284,Bahama Buck's of Tempe,33.3353841,-111.9270761,
Tempe,85284,Wendy's,33.3342104,-111.9466831,
Tempe,85284,Boston's Bar & Grille,33.3505783,-111.9124243,American
Tempe,85284,Arby's Roast Beef,33.349518,-111.962579,
Tempe,85284,Boston Market,33.349583,-111.910685,American
Tempe,85284,Sushi Kee,33.334831,-111.927071,
Tempe,85284,Bashas',33.3345172,-111.9114529,
Tempe,85284,Taco Bell,33.349062,-111.961686,Mexican
Tempe,85284,Applebee's,33.3485932,-111.9653641,American
Gilbert,85296,Buffalo Wild Wings,33.33169,-111.791293,American
Gilbert,85296,Denny's,33.3350425,-111.7543141,
Gilbert,85296,Jack in the Box,33.3351619,-111.756265,
Gilbert,85296,Starbucks,33.335496,-111.757098,
Gilbert,85296,Taco Bell,33.33595,-111.75707,Mexican
Gilbert,85296,Safeway Food & Drug,33.348617,-111.75689,
Gilbert,85296,Del Taco,33.3339217,-111.7558415,
Gilbert,85296,Burger King,33.3379276,-111.7555567,
Gilbert,85296,Wendy's,33.3342768,-111.7553843,
Gilbert,85296,Fry's Food & Drug Stores & Fry's Marketplace,33.30570312,-111.7882276,
Gilbert,85296,McDonald's,33.3359562,-111.755876,
Gilbert,85296,Water and Ice Discount Superstores,33.3203524,-111.7555422,
Gilbert,85296,Subway,33.3175083,-111.7896821,
Gilbert,85296,Chipotle Mexican Grill,33.329842,-111.790869,Mexican
Gilbert,85296,Teakwood Tavern and Grill - Gilbert,33.30524134,-111.7860335,American
Glendale,85302,The Other Room,33.58196095,-112.1533587,
Glendale,85302,Vantastic Donuts & Bagels,33.5674188,-112.1612117,
Glendale,85302,Marc's Sports Grill & Nightlife,33.5831442,-112.1553012,American
Glendale,85302,Applebee's,33.5824906,-112.1857275,American
Glendale,85302,International House of Pancakes,33.581379,-112.200627,
Glendale,85302,Boston Market,33.5815186,-112.1842457,American
Glendale,85302,Sonic Drive-In,33.5814511,-112.1701065,American
Glendale,85302,Walgreens,33.581291,-112.185455,
Glendale,85302,Jack in the Box,33.5683694,-112.1860138,
Glendale,85302,Stardust Country,33.567456,-112.1527954,
Glendale,85302,Swizzle Stick Cocktail Lounge,33.5675045,-112.1704221,
Glendale,85302,5030 Cocktail Lounge,33.5820328,-112.1675807,
Glendale,85304,Jimbo's Bar & Grill,33.5969624,-112.169466,
Glendale,85304,Subway,33.5963281,-112.1666303,
Glendale,85304,McDonald's,33.5967709,-112.168116,
Phoenix,85304,Walgreens,33.5964768,-112.1532282,
Glendale,85304,Silver Q Hookah Lounge and Billiards,33.5962499,-112.2015591,
Glendale,85306,Charley's Place,33.6109727,-112.1537691,
Glendale,85306,Chipotle Mexican Grill,33.6109074,-112.1842034,Mexican
Glendale,85306,Dairy Queen,33.6255882,-112.1875066,
Glendale,85306,Einstein Bros Bagels,33.61106347,-112.185517,
Glendale,85306,Walgreens,33.6106128,-112.1764551,
Glendale,85306,Village Inn Restaurants,33.610444,-112.186983,American
Glendale,85306,Tony's Cocktail Lounge,33.6261448,-112.1868521,American
Glendale,85306,Jack in The Box,33.611117,-112.169012,
Glendale,85306,Circle K,33.611057,-112.168091,
Glendale,85306,Subway,33.612363,-112.184263,
Glendale,85306,Starbucks,33.6110406,-112.1854844,
Glendale,85306,Carl's Jr.,33.6107365,-112.1689384,
Glendale,85306,Sonic Drive-In,33.6118383,-112.2027883,American
Glendale,85308,Walmart,33.64971153,-112.2368002,
Glendale,85308,Chilly Bombers,33.6389251,-112.1656422,
Glendale,85308,Starbucks,33.6538699,-112.1862539,
Glendale,85308,Wendy's,33.639444,-112.186997,
Glendale,85308,Cheers,33.6386192,-112.1877119,
Phoenix,85003,Einstein Bros Bagels,33.639741,-112.152326,
Glendale,85308,Tailgaters Sports Bar & Grill,33.6387461,-112.189584,
Glendale,85308,Padre Murphy's,33.6399075,-112.1532049,
Glendale,85308,QuikTrip,33.6540058,-112.151166,
Glendale,85308,Walgreens,33.6389599,-112.1679009,
Glendale,85308,Subway,33.6531,-112.16828,
Glendale,85308,Sprouts Farmers Market,33.6373992,-112.1807815,
Glendale,85308,Tokyo Lobby Sushi and Grill,33.6384048,-112.1837042,Japanese
Glendale,85308,Ah-So,33.6377658,-112.1898918,Japanese
Glendale,85308,Marie Callender's Restaurants & Bakeries,33.6393151,-112.1659958,
Glendale,85308,Walmart Supercenter,33.6367029,-112.1849365,
Glendale,85308,Thee Pitts Again,33.639361,-112.178959,
Glendale,85308,Starbucks,33.6397913,-112.2245556,
Glendale,85308,Del Taco,33.665801,-112.1867578,Mexican
Glendale,85308,Subway,33.6666821,-112.1867829,
Glendale,85308,Paradise Bakery & Cafe,33.6397913,-112.2245556,
Glendale,85308,What Ale's Ya,33.6380104,-112.196647,
Glendale,85308,Smart & Final,33.638706,-112.227394,
Glendale,85308,Hot Bagels & Deli,33.665863,-112.187126,
Glendale,85308,Aj's Fine Foods,33.6665898,-112.2055553,
Glendale,85308,Wendy's,33.6525002,-112.2351417,
Glendale,85308,Sakana Sushi & Grill,33.6691569,-112.186843,Japanese
Glendale,85308,McDonald's,33.6694646,-112.2029176,
Glendale,85308,Safeway,33.6698957,-112.2028506,
Glendale,85308,Dairy Queen,33.655418,-112.153592,
Glendale,85308,Carl's Jr 7627,33.6385589,-112.214926,
Glendale,85308,Trader Joe's,33.6391543,-112.2263766,
Glendale,85308,The Coffee Bean & Tea Leaf,33.6704382,-112.1879299,
Glendale,85308,Gnc,33.670125,-112.187708,
Glendale,85308,Fresh Wasabi,33.637161,-112.19974,
Glendale,85308,Bell Tower Liquors,33.6387069,-112.1958947,
Glendale,85308,Kaneya Sushi,33.6386082,-112.1958884,
Glendale,85308,Mimis Cafe,33.6385407,-112.2194127,American
Glendale,85308,Boston Market,33.6378,-112.201868,American
Glendale,85308,Old Country Buffet,33.6397477,-112.2287529,American
Glendale,85310,Walgreens,33.712873,-112.202477,
Glendale,85310,Taco Bell,33.68206,-112.2034,Mexican
Glendale,85310,McDonald's,33.6984108,-112.1422898,
Glendale,85310,Dairy Queen,33.682125,-112.205263,
Glendale,85310,Starbucks,33.71327591,-112.1419601,
Buckeye,85326,Love's,33.4313212,-112.5921322,
Buckeye,85326,Sonic Drive-In of Buckeye,33.372032,-112.57475,
Goodyear,85338,Subway,33.484439,-112.364213,
Goodyear,85395,Whataburger,33.4854161,-112.3654283,American
Goodyear,85338,Starbucks,33.4615009,-112.3579932,
Goodyear,85338,Applebee's,33.464934,-112.356661,American
Goodyear,85338,Driver's' Sports Grill,33.4839965,-112.3639978,American
Goodyear,85338,Roman's Oasis,33.4355767,-112.4213467,
Goodyear,85338,Arbys,33.4522969,-112.3587608,
Goodyear,85338,McDonald's,33.44205387,-112.3411526,
Goodyear,85338,Black Bear Diner,33.4568189,-112.3414354,
Goodyear,85338,Baskin-Robbins,33.4502598,-112.3436915,
Goodyear,85338,Waffle House,33.4536005,-112.3411847,
Goodyear,85395,Walgreens,33.48518203,-112.3620713,
Goodyear,85338,Wendy's,33.4593253,-112.3588124,
Goodyear,85338,Cold Stone Creamery,33.437291,-112.381811,
Litchfield Park,85340,Albertsons,33.4947016,-112.338203,
Litchfield Park,85340,Bashas',33.5104231,-112.3408131,
Litchfield Park,85340,The Old Pueblo Cafe,33.4937742,-112.3584879,Mexican
Litchfield Park,85340,McDonald's,33.494319,-112.3401091,
Surprise,85374,McDonald's,33.6570638,-112.3750152,
Surprise,85374,Walgreens,33.6394307,-112.4259802,
Surprise,85374,Applebee's,33.6421316,-112.3557071,American
Surprise,85374,Hungry Howie's Pizza,33.6528627,-112.3707977,
Surprise,85374,Taco Bell,33.64117,-112.35433,Mexican
Surprise,85374,Kentucky Fried Chicken,33.6387673,-112.3942724,
Surprise,85374,IHOP,33.639186,-112.3544029,American
Surprise,85374,Hot Bagels & Deli,33.6387331,-112.3523135,
Surprise,85378,Subway,33.63834675,-112.3757172,
Surprise,85374,My Daddy's Bakery and Cafe,33.638254,-112.3114223,
Surprise,85378,Wendy's,33.6384336,-112.3331529,
Surprise,85374,Runner's Sports Bar,33.6370673,-112.3355452,
Surprise,85374,Starbucks,33.638892,-112.352244,
Surprise,85374,Chick Fil-A,33.6385871,-112.3534314,
Surprise,85374,Karen's Kreamery,33.638937,-112.3553813,
Surprise,85374,Butcher Bob's,33.6384389,-112.3114546,
Surprise,85378,QuikTrip,33.6389081,-112.3058566,
Surprise,85374,High Octane Lounge,33.6392055,-112.3479607,American
Surprise,85374,Quiznos,33.6566464,-112.376208,
Peoria,85382,McDonald's,33.681054,-112.238444,
Peoria,85382,Subway,33.6830919,-112.2369447,
Peoria,85382,IHOP,33.6375954,-112.2362368,American
Peoria,85382,Cold Stone Creamery,33.63785275,-112.2349022,
Peoria,85382,Cost Plus World Market,33.63807879,-112.2187342,
Peoria,85382,Jamba Juice,33.6377963,-112.2173889,
Peoria,85382,Fox and Hound,33.6290819,-112.238107,
Peoria,85382,Maggie Moo & Ice Cream & Creamery,33.630552,-112.23811,
Peoria,85380,Baskin-Robbins,33.5823763,-112.2420872,
Peoria,85382,Denny's,33.6378367,-112.2315561,
Peoria,85382,Ah-So Sushi & Steak,33.634647,-112.220679,Japanese
Peoria,85382,Bashas' ,33.6677358,-112.2798929,
Peoria,85382,Jack In the Box,33.681964,-112.236346,
Peoria,85382,Sonic Drive-In,33.653229,-112.238897,
Peoria,85382,Albertsons,33.68161105,-112.2364783,
Peoria,85382,The Cheesecake Factory,33.633305,-112.23629,American
Peoria,85382,The Moon,33.6350382,-112.2339614,
Peoria,85381,Hooters,33.635846,-112.234319,American
Peoria,85382,McDonald's,33.6526,-112.25681,
Peoria,85382,Applebee's,33.637636,-112.230684,American
Peoria,85382,KFC,33.652158,-112.257284,
Peoria,85382,Whataburger,33.6385968,-112.2511761,American
Wickenburg,85390,Mecca Sports Bar & Grill,33.9694511,-112.7294627,American
Wickenburg,85390,The New Frontier,33.9719884,-112.7233385,
Wickenburg,85390,Chaparral Homemade Ice Cream,33.97183066,-112.7225815,
Wickenburg,85390,Subway,33.972236,-112.724124,
Wickenburg,85390,Twin Wheels Cafe,33.9693921,-112.7291837,
Wickenburg,85390,Anita's Cocina,33.9700047,-112.7292748,Mexican
Wickenburg,85390,Horseshoe Cafe,33.9694707,-112.7285885,
Wickenburg,85358,Taco Bell,33.971721,-112.724369,Mexican
Henderson,89012,Smith's Food & Drug Stores,36.0274982,-115.0839455,
Henderson,89012,McDonald's,36.025017,-115.063136,
Henderson,89012,Albertsons,36.02041626,-115.0489197,
Henderson,89012,7-Eleven,36.022027,-115.047841,
Henderson,89014,Marie Callender's Restaurant & Bakery,36.0596411,-115.0457017,American
Henderson,89012,Jack In the Box,36.021584,-115.049224,
Henderson,89012,Walgreens,36.022302,-115.046604,
Henderson,89012,Speedee Mart,36.019404,-115.052909,
Henderson,89014,Auntie Anne's,36.063823,-115.0404429,
Henderson,89014,L & L Hawaiian Barbeque,36.0662825,-115.0462299,
Henderson,89014,Kathy's Southern Cooking,36.12959525,-115.0926661,
Henderson,89014,Jack in the Box,36.0638777,-115.0585263,
Henderson,89014,Dairy Queen,36.068241,-115.045078,
Henderson,89014,Borders Books Music & Cafe,36.06257,-115.048562,
Henderson,89014,Applebee's,36.0655776,-115.0465752,American
Henderson,89014,Trader Joe's,36.0699349,-115.0823313,
Henderson,89014,Pacific Seafood,36.056139,-115.0544366,
Henderson,89014,Brando's Grill & Bar,36.070946,-115.0824776,American
Henderson,89014,Chevys Fresh Mex,36.0671674,-115.0427419,Mexican
Henderson,89014,Ben & Jerry's,36.0613259,-115.0414116,
Henderson,89014,Buffalo Wild Wings,36.06481111,-115.039934,American
Henderson,89014,Walgreens,36.056741,-115.057512,
Henderson,89014,Cinnabon,36.063823,-115.0404429,
Henderson,89014,Sweet Factory,36.063823,-115.0404429,
Henderson,89014,Chipotle Mexican Grill,36.063161,-115.043594,Mexican
Las Vegas,89134,Chianti Cafe,36.1924136,-115.3043961,Italian
Henderson,89014,Fatburger,36.0613259,-115.0414116,American
Henderson,89014,Lee's Discount Liquor,36.0697,-115.076283,
Henderson,89014,Smith's Food & Drug Centers,36.071976,-115.073341,
Henderson,89014,Wendy's,36.0632417,-115.0355826,
Henderson,89014,Weiss Restaurant Delicatessen Bakery,36.06983431,-115.0800352,
Henderson,89014,Great Harvest Bread Company,36.0658251,-115.036371,
Henderson,89014,McDonald's,36.053434,-115.083115,
Henderson,89014,See's Candies,36.0671229,-115.0428251,
Henderson,89014,Cafe Sensations,36.071441,-115.078507,
Henderson,89014,Mimi's Cafe,36.0625,-115.045444,American
Henderson,89014,Baskin-Robbins,36.0709732,-115.0727844,
Henderson,89014,McDonald's,36.06111,-115.033483,
Henderson,89014,Wild Oats Natural Marketplace,36.0604752,-115.0462783,
Henderson,89014,Hooters,36.0613259,-115.0414116,American
Henderson,89014,Walmart,36.061111,-115.033485,
Henderson,89014,Arby's Roast Beef,36.060868,-115.04572,
Henderson,89014,Saporo Sushi,36.0661171,-115.0463824,Japanese
Henderson,89014,IHop,36.056723,-115.03846,
Henderson,89014,Burger King,36.05661584,-115.0394236,
Henderson,89014,Einstein Bros Bagels,36.063615,-115.0464329,
Henderson,89014,Roberto's Taco Shop,36.071077,-115.07325,Mexican
Henderson,89014,Pei Wei,36.063161,-115.043594,Chinese
Henderson,89014,Cold Stone Creamery,36.063161,-115.043594,
Henderson,89014,99 Cents Only Stores,36.060576,-115.035397,
North Las Vegas,89030,La Bonita Grocery Store,36.197361,-115.119151,
North Las Vegas,89030,Cheyenne Chevron,36.218308,-115.1606878,
North Las Vegas,89030,7-Eleven,36.240301,-115.117234,
North Las Vegas,89030,Carl's Jr Restaurants,36.1962,-115.121018,
North Las Vegas,89030,McDonald's,36.219109,-115.126973,
North Las Vegas,89030,Kfc,36.1955355,-115.1190405,
North Las Vegas,89030,Sonic Drive-In,36.240289,-115.120023,American
North Las Vegas,89030,Burger King,36.239906,-115.095269,
North Las Vegas,89030,Jack In the Box,36.239895,-115.095917,
North Las Vegas,89030,Viva Zapatas Mexican Restaurant & Cantina,36.2407047,-115.0961525,Mexican
North Las Vegas,89030,Tortas El Rey,36.1959253,-115.1176258,Mexican
North Las Vegas,89030,Real Donuts,36.1959019,-115.1196385,
North Las Vegas,89032,Kfc,36.2397894,-115.15999,
North Las Vegas,89032,Walmart Supercenter,36.2368813,-115.1682343,
Las Vegas,89032,Fatburger,36.197365,-115.191711,American
North Las Vegas,89032,Town Center Lounge II,36.2179775,-115.1804956,American
North Las Vegas,89032,Short Line Express Market,36.23116,-115.162904,
North Las Vegas,89032,Food 4 Less,36.238387,-115.181458,
North Las Vegas,89032,Walgreens,36.238878,-115.161195,
North Las Vegas,89032,McDonald's,36.239889,-115.160622,
North Las Vegas,89032,Sundance Kid Cafe,36.2388776,-115.1993719,
North Las Vegas,89032,Krispy Kreme Doughnuts,36.2389206,-115.1599261,
North Las Vegas,89032,Applebee's,36.2390369,-115.1652561,American
Henderson,89052,McDonald's,36.0066,-115.112839,
Henderson,89052,Chipotle Mexican Grill,36.003386,-115.110455,Mexican
Henderson,89052,7-Eleven,36.0058943,-115.0953342,
Henderson,89052,Dairy Queen,36.001117,-115.105286,
Las Vegas,89123,Fado Irish Pub,36.0174194,-115.1186131,Irish
Henderson,89052,Buffalo Wild Wings,36.0028159,-115.1104821,American
Henderson,89052,It's A Grind Coffee House,35.979927,-115.100444,
Henderson,89052,Smith's Food & Drug Centers,35.99936,-115.102713,
Henderson,89052,Tropical Smoothie Cafe,35.9988269,-115.10386,
Henderson,89052,Osaka Japanese Bistro,35.994108,-115.100421,Japanese
Henderson,89052,Jack In the Box,36.0000616,-115.1061749,
Henderson,89052,Inaka Sushi,36.00573,-115.1124225,
Henderson,89052,DOC Holliday's Saloon,35.9796433,-115.0992175,
Henderson,89052,Fatburger,36.02131695,-115.0891365,American
Henderson,89052,Vons,35.97873,-115.099918,
Henderson,89052,Subway,35.9990508,-115.1043672,
Henderson,89052,Smart & Final,36.0068684,-115.111773,
Henderson,89052,Baskin Robbins,35.9992533,-115.1040028,
Henderson,89052,Get N Go,35.9941873,-115.1340624,
Henderson,89052,Albertsons Supermarkets,36.0014169,-115.104293,
Henderson,89052,Starbucks,35.9990508,-115.1043672,
Henderson,89052,Winchell's Pub & Grill,35.998417,-115.103132,
Henderson,89052,I Love Sushi,35.991237,-115.102641,
Henderson,89012,Taco Bell,35.994716,-115.10097,Mexican
Henderson,89052,Wendy's,35.9919889,-115.102292,
Henderson,89052,Applebee's,36.0019605,-115.1088848,American
Henderson,89074,Arby's,36.0410218,-115.1001138,
Henderson,89074,Wienerschnitzel,36.0419452,-115.09874,
Henderson,89074,Sushi Bay,36.0422984,-115.1044113,Japanese
Henderson,89074,Wendy's,36.026794,-115.084754,
Henderson,89074,Jamba Juice,36.0293582,-115.0864001,
Henderson,89074,Vons,36.0405455,-115.1019144,
Henderson,89074,Subway,36.0294451,-115.0862422,
Henderson,89074,Entenmann's Oroweat Bakery Outlet,36.0345523,-115.0987907,
Henderson,89074,Dairy Queen,36.0421488,-115.1012787,
Henderson,89074,Subway,36.0345277,-115.0986882,
Henderson,89074,Walgreens,36.03523951,-115.0849787,
Henderson,89074,International House of Pancakes,36.0281513,-115.1172584,
Las Vegas,89102,Artisan Hotel Boutique,36.1437574,-115.169723,
Las Vegas,89102,Subway,36.130335,-115.206002,
Las Vegas,89102,Mariana's Supermarket,36.1442441,-115.1901021,
Las Vegas,89102,Food-4 Less,36.1451911,-115.1925931,
Las Vegas,89102,Sesame House,36.1263667,-115.197655,Chinese
Las Vegas,89102,Smith's Food & Drug Centers,36.131143,-115.206691,
Las Vegas,89102,Starbucks,36.14402391,-115.2070573,
Las Vegas,89102,Play It Again Sam,36.12689209,-115.195015,
Las Vegas,89102,PT's,36.1472,-115.1892,American
Las Vegas,89102,Walmart Supercenter,36.15830213,-115.2035272,
Las Vegas,89102,Vons,36.1447806,-115.2056316,
Las Vegas,89103,Cookies by Design,36.1176742,-115.2082992,
Las Vegas,89102,Wienerschnitzel,36.14402,-115.194408,
Las Vegas,89102,Mrs. Williams Bakery,36.1268272,-115.2075436,
Las Vegas,89102,New India Market,36.143838,-115.203815,
Las Vegas,89102,Cellar Lounge,36.1434033,-115.1891941,
Las Vegas,89102,Kfc,36.1447963,-115.200935,
Las Vegas,89102,Aloha Kitchen & Bar,36.1423109,-115.2084303,
Las Vegas,89102,Escape Lounge,36.1442579,-115.1975743,
Las Vegas,89146,The Gourmet Cake Factory,36.1573602,-115.2240674,
Las Vegas,89102,Jack's Pub,36.1444267,-115.1748216,
Las Vegas,89102,Church's Chicken,36.1264833,-115.2076648,
Las Vegas,89102,Nozomi Japanese Restaurant,36.15972815,-115.1719898,Japanese
Las Vegas,89102,Trader Joe's,36.1486584,-115.2098129,
Las Vegas,89102,Marie's Gourmet Bakery,36.144952,-115.1766513,
Las Vegas,89102,Coffee Pub,36.145534,-115.179144,
Las Vegas,89102,Western Oriental Super Market,36.1264963,-115.1918819,
Las Vegas,89102,Boomer's Bar,36.1339943,-115.1835685,American
Las Vegas,89102,Diamond Bakery,36.1254312,-115.1969657,
Las Vegas,89102,T & T Ginseng,36.1264133,-115.1949524,
Las Vegas,89102,Moon Doggies,36.13089,-115.198727,
Las Vegas,89102,En Fuego Cigars & Lounge,36.1441601,-115.1616961,
Las Vegas,89102,Wendy's,36.158457,-115.165013,
Las Vegas,89102,Kellys Kasino,36.1522139,-115.1629416,
Las Vegas,89102,Carl's Jr,36.1592159,-115.1619706,
Las Vegas,89102,Omelet House,36.1590433,-115.1711308,American
Las Vegas,89102,The Hard Hat Lounge,36.151189,-115.159755,
Las Vegas,89102,Flex Cocktail Lounge,36.1588404,-115.1989841,
Las Vegas,89102,Real Donuts,36.158683,-115.1663612,
Las Vegas,89102,Panda Express,36.1447295,-115.2041571,Chinese
Las Vegas,89102,El Pollo Loco,36.1450429,-115.2076154,Mexican
Las Vegas,89102,Don Tortaco's,36.1445909,-115.2026919,Mexican
Las Vegas,89102,Circle K Stores,36.1259439,-115.198686,
Las Vegas,89102,Sand Dollar Lounge,36.1258315,-115.1847825,
Las Vegas,89102,Volcano Tea House,36.1254067,-115.1959414,
Las Vegas,89102,Ronald's Donuts,36.1265632,-115.2042227,
Las Vegas,89102,Osaka Japanese Bistro,36.1443404,-115.1972121,Japanese
Las Vegas,89102,Skinny Dugans,36.15886145,-115.1968362,American
Las Vegas,89102,Blueberry Hill Family Restaurant,36.1564508,-115.2072046,
Las Vegas,89102,Jack in the Box,36.1458129,-115.2076281,
Las Vegas,89102,Smart & Final,36.1588706,-115.2001367,
Las Vegas,89102,Taco Bell,36.158728,-115.205348,
Las Vegas,89102,TGI Friday's,36.144807,-115.2026045,American
Las Vegas,89102,Xo Liquor,36.127056,-115.191518,
Las Vegas,89102,Sunville Bakery,36.1261133,-115.1937996,
Las Vegas,89102,Tea Station,36.125964,-115.1976,
Las Vegas,89104,Subway,36.158728,-115.067454,
Las Vegas,89104,Albertsons,36.15735245,-115.1254959,
Las Vegas,89104,Fat Tuesday,36.1472468,-115.1560311,
Las Vegas,89104,7-Eleven,36.158523,-115.148388,
Las Vegas,89104,White Cross Drugs,36.150704,-115.15304,
Las Vegas,89104,Blueberry Hill Family Restaurant,36.159189,-115.127554,
Las Vegas,89104,Speakeasy Liquor & Market,36.1588675,-115.1397196,
Las Vegas,89104,Dino's Lounge,36.152449,-115.1519934,
Las Vegas,89104,Jack In the Box,36.1523679,-115.153815,
Las Vegas,89104,Sunrise Too Donuts,36.1589885,-115.1075936,
Las Vegas,89104,Luv-It Frozen Custard,36.1515453,-115.1511544,
Las Vegas,89104,Huntridge Tavern,36.1582982,-115.1371172,
Las Vegas,89104,Florida Cafe Cuban Bar & Grill,36.155323,-115.149618,Cuban
Las Vegas,89104,All Star Donuts,36.1517796,-115.1515961,
Las Vegas,89104,OG Gentlemen's Club,36.1522631,-115.151347,
Las Vegas,89104,Snick's Place,36.1544947,-115.151433,
Las Vegas,89104,McDonald's,36.1584618,-115.119375,
Las Vegas,89104,Food-4 Less,36.143001,-115.06704,
Las Vegas,89104,PT's,36.147189,-115.0653489,American
Las Vegas,89104,Coca-Cola Bottling Company,36.158757,-115.1055342,
Las Vegas,89104,Jake's Bar,36.1462521,-115.1186863,
Las Vegas,89104,Barley Pops,36.1586893,-115.0997112,
Las Vegas,89104,El Pollo Loco,36.1588157,-115.0877703,Mexican
Las Vegas,89104,Donut Tyme,36.1590088,-115.0826791,
Las Vegas,89104,Walgreens,36.158352,-115.14703,
Las Vegas,89104,Silver Saddle Saloon,36.159498,-115.115574,
Las Vegas,89104,Haagen Dazs,36.147371,-115.155365,
Las Vegas,89104,Xo Liquor,36.1585514,-115.0898496,
Las Vegas,89104,Marie Callender's Restaurants & Bakeries,36.1449619,-115.1460032,
Las Vegas,89104,Taco Bell,36.144553,-115.136886,Mexican
Las Vegas,89104,A Mart,36.1439448,-115.1425224,
Las Vegas,89104,My Cousin Vinny Sports Bar,36.1445765,-115.1298962,
Las Vegas,89101,KFC,36.1442526,-115.1369445,
Las Vegas,89104,Tokyo Japanese Restaurant,36.1429063,-115.1405587,Japanese
Las Vegas,89104,Badlands Saloon,36.1439448,-115.1425224,
Las Vegas,89106,Vitamin World,36.1624815,-115.1574466,
Las Vegas,89106,Quiznos,36.160499,-115.172372,
Las Vegas,89106,The Fudgery,36.16394922,-115.1565986,
Las Vegas,89106,Auntie Anne's Soft Pretzel,36.16480714,-115.1575814,
Las Vegas,89106,Fuzziwig's Candy Factory,36.163283,-115.1569215,
Las Vegas,89106,Jack in the Box,36.1959429,-115.1606081,
Las Vegas,89106,Walgreens,36.1814214,-115.1799005,
Las Vegas,89106,Popeye's,36.1769889,-115.1744417,
Las Vegas,89106,Seven Seas Restaurant & Lounge,36.1958369,-115.1523207,
Las Vegas,89106,Churchs Chicken,36.177463,-115.176519,
Las Vegas,89106,Mario's Westside Market,36.1948837,-115.1606906,
Las Vegas,89106,Burger King,36.1798935,-115.1774707,American
Las Vegas,89106,Wendy's,36.180793,-115.178365,
Las Vegas,89106,Winchell's Donut House,36.180122,-115.177742,
Las Vegas,89106,Starbucks,36.1613589,-115.1729812,
Las Vegas,89106,Roberto's Taco Shop,36.1995143,-115.1970815,Mexican
Las Vegas,89106,Smith's Food & Drug Centers,36.161153,-115.173902,
Las Vegas,89106,Stay Healthy,36.1615258,-115.1728181,
Las Vegas,89120,Carl's Donuts,36.074328,-115.10573,
Las Vegas,89108,Roberto's Taco Shop,36.189324,-115.241662,Mexican
Las Vegas,89108,Burger King,36.19668,-115.223459,
Las Vegas,89108,Thai Grill,36.1941506,-115.2061228,Thai
Las Vegas,89108,Omaha Steaks,36.199364,-115.241754,
Las Vegas,89108,Taco Bell,36.195937,-115.227792,Mexican
Las Vegas,89108,Borders Books Music & Cafe,36.1992004,-115.2422576,
Las Vegas,89108,O'Aces Bar & Grill,36.2140139,-115.2424449,American
Las Vegas,89108,Sunshine Cafe,36.1879988,-115.2075749,
Las Vegas,89108,Yoko Hama Sushi,36.2031202,-115.2424724,Japanese
Las Vegas,89108,Applebee's,36.197314,-115.241409,American
Las Vegas,89108,Sonic Drive-In,36.195414,-115.230741,American
Las Vegas,89108,Torrey Pines Pub,36.1959012,-115.2324571,American
Las Vegas,89108,Marie Callender's Restaurants & Bakeries,36.2161667,-115.2424001,
Las Vegas,89108,Walmart,36.2150828,-115.2445954,
Las Vegas,89108,Griddlecakes,36.2171468,-115.2253774,
Las Vegas,89108,Subway,36.2179656,-115.2404192,
Las Vegas,89108,International House of Pancakes,36.219365,-115.244985,
Las Vegas,89108,Wendy's,36.218618,-115.243688,
Las Vegas,89110,General Nutrition Centers,36.1614033,-115.0623069,
Las Vegas,89110,McDonald's,36.1739559,-115.09775,
Las Vegas,89110,Sonic Drive-In,36.1700842,-115.0623466,American
Las Vegas,89110,Smith's Food & Drug Centers,36.167386,-115.060815,
Las Vegas,89110,Walmart,36.1649381,-115.0630179,
Las Vegas,89110,KFC,36.1612711,-115.0624468,
Las Vegas,89110,Applebee's,36.1682808,-115.0615651,American
Las Vegas,89110,Great Harvest Bread Co,36.1742647,-115.0682286,
Las Vegas,89110,Wendy's,36.1774933,-115.0618694,
Las Vegas,89110,Big Dog's Bar and Grill,36.1871865,-115.0623681,American
Las Vegas,89110,Walgreens,36.1736927,-115.0790414,
Las Vegas,89118,Louie's Noodle Shop,36.0974549,-115.196421,
Las Vegas,89118,Putter's Bar & Grill,36.08535,-115.207495,
Las Vegas,89113,Taco Bell,36.086682,-115.242907,Mexican
Las Vegas,89118,Roberto's Taco Shop,36.092861,-115.2085216,Mexican
Las Vegas,89119,Bon Breads Baking Company,36.0695997,-115.1722579,
Las Vegas,89118,O'Aces Bar & Grill,36.098857,-115.208321,American
Las Vegas,89118,Tacos El Nopal,36.086835,-115.196276,Mexican
Las Vegas,89118,PT's,36.0922493,-115.208489,American
Las Vegas,89118,Charlie's Las Vegas,36.0985813,-115.1986069,
Las Vegas,89120,Sam's Club,36.096528,-115.102443,
Las Vegas,89120,Nikki Lee's Sports Pub & Grill,36.071999,-115.114102,
Las Vegas,89147,Original Pancake House,36.11350091,-115.2964909,
Las Vegas,89120,Brewery Bar & Grill,36.0720741,-115.1078327,American
Las Vegas,89120,Jack in the Box,36.086046,-115.071956,
Las Vegas,89120,PT's,36.071805,-115.099184,American
Las Vegas,89120,Selma's Cookies,36.0858913,-115.1037933,
Las Vegas,89120,Panda Express,36.071707,-115.090402,Chinese
Las Vegas,89121,Subway,36.099678,-115.101374,
Las Vegas,89120,Office 5 Bar & Grill,36.08631469,-115.1017032,American
Las Vegas,89120,Taco Bell,36.071741,-115.116276,Mexican
Las Vegas,89120,McDonald's,36.071943,-115.115344,
Las Vegas,89122,Mulligan's Pub,36.08413015,-115.0312607,
Las Vegas,89122,El Cordobes,36.1004362,-115.062908,
Las Vegas,89122,Stadium Saloon,36.09208,-115.04175,
Las Vegas,89122,Sonic Drive-In,36.099863,-115.061928,American
Las Vegas,89122,Jack in the Box,36.0847229,-115.03178,
Las Vegas,89122,Albertsons,36.10175705,-115.0541611,
Las Vegas,89122,Burger King,36.101433,-115.052443,
Las Vegas,89128,PT's,36.1995034,-115.2816734,American
Las Vegas,89128,Vons,36.1961758,-115.2579742,
Las Vegas,89128,Panda Express,36.196201,-115.258816,Chinese
Las Vegas,89128,Grape Street,36.1960224,-115.2571252,Italian
Las Vegas,89128,McDonald's,36.1813293,-115.2537641,
Las Vegas,89128,Starbucks,36.1960261,-115.2583377,
Las Vegas,89128,Roadrunner Saloon,36.18224438,-115.2602711,American
Las Vegas,89128,Trader Joe's,36.18060741,-115.2577443,
Las Vegas,89128,Taco Bell,36.201355,-115.259949,Mexican
Las Vegas,89128,Roberto's Taco Shop,36.2000572,-115.2807763,Mexican
Las Vegas,89128,Smith's Food & Drug Centers Inc,36.2017257,-115.2835733,
Las Vegas,89128,J & J Health Foods,36.19518,-115.2573615,
Las Vegas,89128,Burger King,36.199276,-115.280873,
Las Vegas,89128,Steiner's Nevada Style Pub,36.1907268,-115.2600699,American
Las Vegas,89128,Omelet House Summerlin,36.2004665,-115.2818774,Italian
Las Vegas,89128,Tenaya Creek Brewery,36.2161119,-115.251305,
Las Vegas,89128,Wendy's,36.1962859,-115.2479571,
Las Vegas,89128,Dairy Queen,36.19518,-115.2573615,
Las Vegas,89128,Walgreens,36.1958103,-115.2597635,
Las Vegas,89128,Lee's Discount Liquor,36.1954334,-115.2547877,
Las Vegas,89128,Juices Wild,36.1962373,-115.2575104,
Las Vegas,89128,Yummy Grill & Sushi,36.196089,-115.252849,Japanese
Las Vegas,89128,Charlie's Down Under,36.1949248,-115.2600726,American
Las Vegas,89128,March?? Bacchus,36.2074847,-115.2682033,French
Las Vegas,89128,Einstein Bros,36.1956491,-115.2587483,
Las Vegas,89128,Jack In the Box,36.1964157,-115.2581988,
Las Vegas,89128,Subway,36.2009876,-115.281363,
Las Vegas,89128,Subway,36.1907268,-115.2600699,
Las Vegas,89130,The Lodge At Tenaya,36.2645546,-115.252457,
Las Vegas,89130,Mulligans Landing,36.2110566,-115.2066192,
Las Vegas,89108,Taco Bell,36.217635,-115.212381,Mexican
Las Vegas,89130,Sonic Drive-In,36.240226,-115.206976,American
Las Vegas,89130,Roberto's Taco Shop #22,36.2466674,-115.2092861,Mexican
Las Vegas,89130,Quiznos,36.2617919,-115.2489614,
Las Vegas,89130,McDonald's,36.2628802,-115.2501061,
Las Vegas,89130,Town Center Lounge,36.271474,-115.2606133,
Las Vegas,89130,Baba's Tsi-bugan Restaurant,36.2433513,-115.2358857,American
Las Vegas,89130,Jack in the Box,36.217618,-115.213267,
Las Vegas,89130,John Mull's Meats & Road Kill Grill,36.2272068,-115.2114784,
Las Vegas,89130,Big Dog's Draft House,36.242387,-115.2358276,American
Las Vegas,89130,Larry's Hideaway,36.2200599,-115.21256,
Las Vegas,89130,Cheyenne Saloon,36.2151739,-115.2123105,
Las Vegas,89130,Smith's Food & Drug Centers,36.24059184,-115.2303832,
Las Vegas,89130,Kerry's Sports Pub Pizza & Grill,36.2234468,-115.2173307,
Las Vegas,89130,McDonald's,36.216778,-115.212427,
Las Vegas,89130,Del Taco,36.2412119,-115.2339219,Mexican
Las Vegas,89130,Santa Fe Mining Company,36.252649,-115.243248,American
Las Vegas,89130,Bailey's Sports Bar & Eatery,36.238363,-115.231973,
Las Vegas,89130,Baskin Robbins,36.2477616,-115.2096326,
Las Vegas,89130,KFC,36.2408055,-115.2335805,
Las Vegas,89130,7-Eleven,36.2466617,-115.2254393,
Las Vegas,89130,Lee's Discount Liquor,36.240422,-115.2341842,
Las Vegas,89130,Fatburger,36.241822,-115.235295,American
Las Vegas,89130,Wendy's,36.2424474,-115.2349356,
Las Vegas,89134,Starbucks,36.19181349,-115.3049848,
Las Vegas,89134,Vons,36.193694,-115.305871,
Las Vegas,89134,Taco Bell,36.206848,-115.300544,Mexican
Las Vegas,89134,Walgreens,36.2065788,-115.3019309,
Las Vegas,89134,Jack in the Box,36.2065795,-115.3036173,
Las Vegas,89142,Cold Stone Creamery,36.1580626,-115.0462282,
Las Vegas,89142,Walgreens,36.1441271,-115.0650738,
Las Vegas,89142,Sunrise Casablanca,36.1597521,-115.0346388,American
Las Vegas,89142,McDonald's,36.1589979,-115.046879,
Las Vegas,89142,Albertsons,36.15818405,-115.0450592,
Las Vegas,89142,Sonic Drive-In,36.1588987,-115.0492967,
Las Vegas,89144,Burger King,36.184049,-115.309074,
Las Vegas,89144,City Stop,36.1838135,-115.3097429,
Las Vegas,89146,Walgreens,36.1590527,-115.2355621,
Las Vegas,89146,Sushi On Rainbow,36.126717,-115.242438,Japanese
Las Vegas,89146,Cake Designs by Ruth,36.126394,-115.21203,
Las Vegas,89146,McDonald's,36.1591886,-115.2335289,
Las Vegas,89146,King Tut's Pub & Poker,36.1593225,-115.2248399,
Las Vegas,89146,HoneyBaked,36.1583497,-115.2434253,
Las Vegas,89146,Original Pancake House,36.1589104,-115.2072699,
Las Vegas,89146,Buffet Asia,36.144758,-115.2422681,Japanese
Las Vegas,89146,Baskin-Robbins 31 Flavors Ice Cream & Yogurt Store,36.1280969,-115.225621,
Las Vegas,89146,Popeyes Chicken & Biscuits,36.143699,-115.225724,
Las Vegas,89146,Mr D's Sportsbar & Grill,36.151297,-115.242763,American
Las Vegas,89146,Wendy's,36.1574585,-115.2442322,
Las Vegas,89146,Sunfood Market,36.126224,-115.219169,
Las Vegas,89102,Taco Bell,36.144723,-115.2257587,Mexican
Las Vegas,89146,Winchells Donuts,36.1282179,-115.2249786,
Las Vegas,89146,McDonald's,36.1456254,-115.2431013,
Las Vegas,89146,Jack in the Box,36.126592,-115.208898,
Las Vegas,89146,Jones Market & Deli,36.1274446,-115.2250141,
Las Vegas,89146,Dairy Queen,36.1251279,-115.225621,
Las Vegas,89146,Sonic Drive-In,36.143552,-115.233012,
Las Vegas,89146,Ozzie's,36.1263238,-115.2097117,
